Facility Name,City,County,State,ZIP,Latitude,Longitude,Industry Sector,Carcinogen,Stack Air,Water,Underground,On-Site Release Total
RED DOG OPERATIONS,KOTZEBUE,NORTHWEST ARCTIC BOROUGH,AK,99752,68.061507,-162.855492,Metal Mining,NO,842,971,0,399457509
RED DOG OPERATIONS,KOTZEBUE,NORTHWEST ARCTIC BOROUGH,AK,99752,68.061507,-162.855492,Metal Mining,NO,332,2.94,0,344780769.9
KENNECOTT UTAH COPPER MINE CONCENTRATORS & POWER PLANT,BINGHAM CANYON,SALT LAKE,UT,84006,40.516666,-112.150002,Metal Mining,NO,19,20,0,191272990.3
HECLA GREENS CREEK MINING CO,JUNEAU,JUNEAU CITY AND BOROUGH,AK,99801,58.081802,-134.641206,Metal Mining,NO,6798,130,0,75596269
DARK HORSE TREATING FACILITY,JAL,LEA,NM,88252,32.1195,-103.2893,Natural Gas Processing,NO,5946,0,0,73621326
NEVADA GOLD MINES LLC - GOLDSTRIKE MINES INC,CARLIN,ELKO,NV,89822,40.974445,-116.349998,Metal Mining,YES,3,0,0,58489642
KENNECOTT UTAH COPPER MINE CONCENTRATORS & POWER PLANT,BINGHAM CANYON,SALT LAKE,UT,84006,40.516666,-112.150002,Metal Mining,NO,11,495,0,50850490
MIDWAY GAS PLANT,CRANE,CRANE,TX,79731,31.499865,-102.641279,Natural Gas Processing,NO,32000,0,0,42032004.1
NEVADA GOLD MINES LLC - CARLIN SOUTH AREA,CARLIN,EUREKA,NV,89822,40.7813,-116.1858,Metal Mining,YES,243,0,0,22773044
SAND HILLS GAS PLANT,CRANE,CRANE,TX,79731,31.501667,-102.640277,Natural Gas Processing,NO,21000,0,0,20021033
RED DOG OPERATIONS,KOTZEBUE,NORTHWEST ARCTIC BOROUGH,AK,99752,68.061507,-162.855492,Metal Mining,NO,0.4,0,0,18781436.4
NEVADA GOLD MINES LLC - GOLDSTRIKE MINES INC,CARLIN,ELKO,NV,89822,40.974445,-116.349998,Metal Mining,YES,217,0,0,16998905
MONTANA RESOURCES LLC,BUTTE,SILVER BOW,MT,59701,46.007588,-112.501703,Metal Mining,NO,71,0,0,16852661
BASIN ELECTRIC ANTELOPE VALLEY STATION,BEULAH,MERCER,ND,58523,47.370445,-101.838042,Chemicals,NO,10100,424,0,15412853
HECLA GREENS CREEK MINING CO,JUNEAU,JUNEAU CITY AND BOROUGH,AK,99801,58.081802,-134.641206,Metal Mining,NO,15499,330,0,14878817
ASCEND PERFORMANCE MATERIALS OPERATIONS LLC,CANTONMENT,ESCAMBIA,FL,325338926,30.596678,-87.251977,Chemicals,NO,0,0,0,13751354
ROBINSON NEVADA MINING CO,RUTH,WHITE PINE,NV,89319,39.28107,-114.992175,Metal Mining,NO,1.9,0,0,13390145.3
ONEOK ROCKIES MIDSTREAM LLC - GRASSLANDS GAS PLANT,ALEXANDER,MCKENZIE,ND,58831,47.590688,-103.999016,Natural Gas Processing,NO,0,0,0,12911553
DAGGER DRAW GAS PLANT,ARTESIA,EDDY,NM,88210,32.71629,-104.44602,Natural Gas Processing,NO,7251.28,0,0,12069771.7
EUNICE GAS PLANT,EUNICE,LEA,NM,88231,32.424944,-103.14725,Natural Gas Processing,NO,2098,0,0,12002358
MONTANA RESOURCES LLC,BUTTE,SILVER BOW,MT,59701,46.007588,-112.501703,Metal Mining,NO,9.9,0,0,10822952.3
BAYER CROPSCIENCE LP,LULING,ST. CHARLES PARISH,LA,70070,29.92444,-90.352217,Chemicals,YES,15000,3000,0,9621100
COEUR ROCHESTER INC,LOVELOCK,PERSHING,NV,89419,40.288267,-118.141222,Metal Mining,NO,8.9,0,0,9190022.5
FORT KNOX MINE,FAIRBANKS,FAIRBANKS NORTH STAR BOROUGH,AK,99712,64.99953,-147.358107,Metal Mining,NO,21,0,0,8811050
HECLA LTD LUCKY FRIDAY MINE UNIT,MULLAN,SHOSHONE,ID,83846,47.470047,-115.78342,Metal Mining,NO,12.7,832.3,0,8444450
NYRSTAR CLARKSVILLE INC,CLARKSVILLE,MONTGOMERY,TN,37040,36.518398,-87.40293,Metal Mining,NO,599935,22701,0,8234126
INEOS NITRILES USA LLC           GREEN LAKE PLANT,PORT LAVACA,CALHOUN,TX,77979,28.570964,-96.83341,Chemicals,NO,3663.33,0,0,7763914
CF INDUSTRIES NITROGEN LLC,DONALDSONVILLE,ASCENSION PARISH,LA,70346,30.098563,-90.95599,Chemicals,NO,7157824,86910,0,7614122
HECLA GREENS CREEK MINING CO,JUNEAU,JUNEAU CITY AND BOROUGH,AK,99801,58.081802,-134.641206,Metal Mining,NO,13,73,0,7566743
NEVADA GOLD MINES LLC - CARLIN SOUTH AREA,CARLIN,EUREKA,NV,89822,40.7813,-116.1858,Metal Mining,NO,16.7,0,0,7467628
MONTANA RESOURCES LLC,BUTTE,SILVER BOW,MT,59701,46.007588,-112.501703,Metal Mining,NO,11.21,0,0,7277723.87
CORNERSTONE CHEMICAL CO,WESTWEGO,JEFFERSON PARISH,LA,70094,29.958889,-90.270472,Chemicals,NO,68,0,0,7054491
TRONOX LLC,HAMILTON,MONROE,MS,39746,33.730556,-88.4525,Chemicals,NO,0,382688,0,6814905
DYNO NOBEL- ST.HELENS PLANT,DEER ISLAND,COLUMBIA,OR,97054,45.9122,-122.8286,Chemicals,NO,5745065,1094,0,6105712
NEVADA GOLD MINES LLC - GOLDSTRIKE MINES INC,CARLIN,ELKO,NV,89822,40.974445,-116.349998,Metal Mining,NO,115,0,0,5696642
CRIPPLE CREEK & VICTOR GOLD MINING CO,VICTOR,TELLER,CO,80860,38.721672,-105.157514,Metal Mining,NO,0,0,0,5695657.8
KOCH FERTILIZER ENID LLC,ENID,GARFIELD,OK,73701,36.3791,-97.7613,Chemicals,NO,5379836,1287,0,5671283
CHEMOURS DELISLE PLANT,PASS CHRISTIAN,HARRISON,MS,39571,30.389186,-89.308892,Chemicals,NO,1,276,0,5255567
MALJAMAR GAS PROCESSING PLANT,MALJAMAR,LEA,NM,88264,32.813889,-103.771944,Natural Gas Processing,NO,2424,0,0,5208914
BASIN ELECTRIC ANTELOPE VALLEY STATION,BEULAH,MERCER,ND,58523,47.370445,-101.838042,Chemicals,NO,304,5,0,5130894
ASCEND PERFORMANCE MATERIALS-CHOCOLATE BAYOU PLANT,ALVIN,BRAZORIA,TX,775110000,29.231225,-95.196088,Chemicals,NO,0,0,0,5111443
DYNO NOBEL INC-CHEYENNE PLANT,CHEYENNE,LARAMIE,WY,82001,41.0949,-104.908,Chemicals,NO,0,0,0,5011807
NEVADA GOLD MINES LLC - TURQUOISE RIDGE,GOLCONDA,HUMBOLDT,NV,89414,41.216,-117.212,Metal Mining,YES,0,56,0,4981304
PINTO VALLEY MINE,MIAMI,GILA,AZ,85539,33.417445,-110.98421,Metal Mining,NO,6,0,0,4840155
MONUMENT GAS PLANT,MONUMENT,LEA,NM,88265,32.624135,-103.292931,Natural Gas Processing,NO,1500,0,0,4401870
BAYER CROPSCIENCE LP,LULING,ST. CHARLES PARISH,LA,70070,29.92444,-90.352217,Chemicals,NO,150,760,0,4400910
EAGLE MINE LLC-HUMBOLDT MILL,CHAMPION,MARQUETTE,MI,49814,46.48541,-87.90505,Metal Mining,YES,30,38,0,4400104.3
DELAWARE CITY REFINERY,DELAWARE CITY,NEW CASTLE,DE,19706,39.591,-75.634,Petroleum,NO,0,4348606,0,4348606
PCS NITROGEN FERTILIZER LP,AUGUSTA,RICHMOND,GA,30901,33.426976,-81.932898,Chemicals,NO,3996566,29795,0,4218982
FLOPAM INC,PLAQUEMINE,IBERVILLE PARISH,LA,70764,30.26806,-91.14767,Chemicals,NO,4200000,0,0,4200000
BUICK MINE/MILL,BOSS,IRON,MO,65440,37.60617,-91.12341,Metal Mining,NO,399.35,6.93,0,4147751.1
NEVADA GOLD MINES LLC-CORTEZ DISTRICT,CRESCENT VALLEY,LANDER,NV,89821,40.205,-116.6657,Metal Mining,NO,0.9,0,0,4078154.4
POGO MINE,DELTA JUNCTION,SOUTHEAST FAIRBANKS CENSU,AK,99737,64.449722,-144.939623,Metal Mining,YES,42.02,55.74,0,4061789.52
MONTANA RESOURCES LLC,BUTTE,SILVER BOW,MT,59701,46.007588,-112.501703,Metal Mining,NO,1.86,0,0,3943593.6
ASCEND PERFORMANCE MATERIALS-CHOCOLATE BAYOU PLANT,ALVIN,BRAZORIA,TX,775110000,29.231225,-95.196088,Chemicals,YES,26047,0,0,3883584
BLANCHARD REFINING CO LLC,TEXAS CITY,GALVESTON,TX,77590,29.374444,-94.925,Petroleum,NO,12000,0,0,3833000
NEVADA GOLD MINES LLC - GOLDSTRIKE MINES INC,CARLIN,ELKO,NV,89822,40.974445,-116.349998,Metal Mining,NO,88,0,0,3763267
CHEMOURS JOHNSONVILLE PLANT,NEW JOHNSONVILLE,HUMPHREYS,TN,37134,36.043056,-87.981667,Chemicals,NO,735,195091,0,3758024
NEVADA GOLD MINES LLC - CARLIN SOUTH AREA,CARLIN,EUREKA,NV,89822,40.7813,-116.1858,Metal Mining,NO,222,0,0,3472422
VIBRANTZ SPECIALTY PRODUCTS LLC,NEW JOHNSONVILLE,HUMPHREYS,TN,37134,35.99622,-87.979395,Chemicals,NO,518,393,0,3437790
LOUISIANA PIGMENT CO LP,WESTLAKE,CALCASIEU PARISH,LA,70669,30.196389,-93.306944,Chemicals,NO,250,77000,0,3238255
HECLA LTD LUCKY FRIDAY MINE UNIT,MULLAN,SHOSHONE,ID,83846,47.470047,-115.78342,Metal Mining,NO,0.04,14.3,0,3235621.04
FREEPORT-MCMORAN BAGDAD INC,BAGDAD,YAVAPAI,AZ,86321,34.56849,-113.17552,Metal Mining,NO,0.7,0,0,3210286.7
BRUSHY CREEK MINE/MILL,BOSS,REYNOLDS,MO,65440,37.53797,-91.12926,Metal Mining,NO,16.81,47.24,0,3125491.26
ASCEND PERFORMANCE MATERIALS-CHOCOLATE BAYOU PLANT,ALVIN,BRAZORIA,TX,775110000,29.231225,-95.196088,Chemicals,NO,4709,581,0,3097452
HECLA LTD LUCKY FRIDAY MINE UNIT,MULLAN,SHOSHONE,ID,83846,47.470047,-115.78342,Metal Mining,NO,86.36,11.36,0,3084686.77
USS-CLAIRTON PLANT,CLAIRTON,ALLEGHENY,PA,15025,40.305088,-79.876911,Petroleum,NO,1,2913955,0,2915304
BUICK MINE/MILL,BOSS,IRON,MO,65440,37.60617,-91.12341,Metal Mining,NO,54.66,4.38,0,2877923.92
NYSTAR GORDONSVILLE MINE & MILL,GORDONSVILLE,SMITH,TN,38563,36.19631,-85.9364,Metal Mining,NO,981.3,1904.15,0,2868389.99
INEOS NITRILES USA LLC           GREEN LAKE PLANT,PORT LAVACA,CALHOUN,TX,77979,28.570964,-96.83341,Chemicals,NO,65617.02,490,0,2857684.46
CORNERSTONE CHEMICAL CO,WESTWEGO,JEFFERSON PARISH,LA,70094,29.958889,-90.270472,Chemicals,NO,92944,39220,0,2808239
RED DOG OPERATIONS,KOTZEBUE,NORTHWEST ARCTIC BOROUGH,AK,99752,68.061507,-162.855492,Metal Mining,NO,5,0,0,2806973
SWEETWATER MINE/MILL,ELLINGTON,REYNOLDS,MO,63638,37.358597,-91.147258,Metal Mining,NO,9.12,53.15,0,2790122.02
NEVADA GOLD MINES LLC - PHOENIX MINE,BATTLE MOUNTAIN,LANDER,NV,89820,40.50066,-117.10615,Metal Mining,NO,2.1,0,0,2712155.1
NEVADA GOLD MINES LLC - TURQUOISE RIDGE,GOLCONDA,HUMBOLDT,NV,89414,41.216,-117.212,Metal Mining,NO,0,122,0,2661353
PHILLIPS 66 CO-BAYWAY REFINERY,LINDEN,UNION,NJ,7036,40.640135,-74.21888,Petroleum,NO,0,2596400,0,2596400
CHEMOURS JOHNSONVILLE PLANT,NEW JOHNSONVILLE,HUMPHREYS,TN,37134,36.043056,-87.981667,Chemicals,NO,2562680,0,0,2562680
NEVADA GOLD MINES LLC - TURQUOISE RIDGE,GOLCONDA,HUMBOLDT,NV,89414,41.216,-117.212,Metal Mining,NO,7,620,0,2561998
FLETCHER MINE/MILL,CENTERVILLE,REYNOLDS,MO,63633,37.46674,-91.11035,Metal Mining,NO,55.05,11.47,0,2491941.77
VISCOFAN USA INC,DANVILLE,VERMILION,IL,61834,40.141166,-87.580436,Plastics and Rubber,NO,2422059,0,0,2433374
PCS NITROGEN OHIO L.P.,LIMA,ALLEN,OH,45804,40.717499,-84.132274,Chemicals,NO,2077489,4852,0,2429489
NEVADA GOLD MINES LLC-CORTEZ DISTRICT,CRESCENT VALLEY,LANDER,NV,89821,40.205,-116.6657,Metal Mining,NO,0,0,0,2427386
BRUSHY CREEK MINE/MILL,BOSS,REYNOLDS,MO,65440,37.53797,-91.12926,Metal Mining,NO,46.86,2.39,0,2404642.47
ADVANCION CORP,STERLINGTON,OUACHITA PARISH,LA,71280,32.6907,-92.0826,Chemicals,YES,1695,2,0,2395149
INEOS NITRILES USA LLC           GREEN LAKE PLANT,PORT LAVACA,CALHOUN,TX,77979,28.570964,-96.83341,Chemicals,YES,22306.64,0,0,2388067.61
NEVADA GOLD MINES LLC - TURQUOISE RIDGE,GOLCONDA,HUMBOLDT,NV,89414,41.216,-117.212,Metal Mining,NO,0,0,0,2351530
ADVANCION CORP,STERLINGTON,OUACHITA PARISH,LA,71280,32.6907,-92.0826,Chemicals,NO,418,0,0,2330750
INEOS PIGMENTS USA INC,ASHTABULA,ASHTABULA,OH,44004,41.889223,-80.763715,Chemicals,NO,2321000,0,0,2321000
RUBICON LLC,GEISMAR,ASCENSION PARISH,LA,70734,30.1989,-91.0085,Chemicals,YES,7000,0,0,2312500
BUICK MINE/MILL,BOSS,IRON,MO,65440,37.60617,-91.12341,Metal Mining,NO,63.32,97.81,0,2274458.53
P4 PRODUCTION LLC,SODA SPRINGS,CARIBOU,ID,83276,42.687031,-111.5878,Chemicals,NO,46069,304.1,0,2223526.47
CLIMAX MOLYBDENUM CO-CLIMAX MINE,CLIMAX,LAKE,CO,80429,39.368668,-106.182976,Metal Mining,NO,0.4,1.3,0,2219094.3
SWEETWATER MINE/MILL,ELLINGTON,REYNOLDS,MO,63638,37.358597,-91.147258,Metal Mining,NO,39.21,5.52,0,2175546
U.S. SILVER - IDAHO INC,WALLACE,SHOSHONE,ID,83873,47.48289,-115.961552,Metal Mining,NO,0,0,0,2173100
RED DOG OPERATIONS,KOTZEBUE,NORTHWEST ARCTIC BOROUGH,AK,99752,68.061507,-162.855492,Metal Mining,NO,2,14.56,0,2156372.56
WOOD RIVER REFINERY,ROXANA,MADISON,IL,62084,38.840401,-90.070774,Petroleum,NO,0,2134527,0,2134527
ONEOK HYDROCARBON LP - BUSHTON COMPLEX,BUSHTON,ELLSWORTH,KS,67427,38.522523,-98.355074,Natural Gas Processing,NO,1700,0,0,2066247.25
SMOKY VALLEY COMMON OPERATION,ROUND MOUNTAIN,NYE,NV,89045,38.716408,-117.101879,Metal Mining,NO,17,0,0,2000038
INEOS NITRILES USA LLC           GREEN LAKE PLANT,PORT LAVACA,CALHOUN,TX,77979,28.570964,-96.83341,Chemicals,YES,0,0,0,1992867
NYRSTAR CLARKSVILLE INC,CLARKSVILLE,MONTGOMERY,TN,37040,36.518398,-87.40293,Metal Mining,NO,93,489,0,1972176.82
VALERO REFINING - TEXAS L.P. HOUSTON REFINERY,HOUSTON,HARRIS,TX,77012,29.722274,-95.254401,Petroleum,NO,0,1962354,0,1962354
NEVADA GOLD MINES LLC - CARLIN SOUTH AREA,CARLIN,EUREKA,NV,89822,40.7813,-116.1858,Metal Mining,NO,113,0,0,1935292
FLETCHER MINE/MILL,CENTERVILLE,REYNOLDS,MO,63633,37.46674,-91.11035,Metal Mining,NO,7.62,12.7,0,1916379.03
RED DOG OPERATIONS,KOTZEBUE,NORTHWEST ARCTIC BOROUGH,AK,99752,68.061507,-162.855492,Metal Mining,YES,11,10.66,0,1834604.66
NYSTAR - YOUNG MINE & MILL,NEW MARKET,JEFFERSON,TN,37820,36.02634,-83.71224,Metal Mining,NO,4257,1923,0,1817085.67
OCEANAGOLD HAILE GOLD MINE,KERSHAW,LANCASTER,SC,29067,34.597431,-80.532552,Metal Mining,NO,16,5500,0,1805520.5
LSB CHEMICAL L.L.C.,PRYOR,MAYES,OK,74361,36.241247,-95.278349,Chemicals,NO,0,15891.91,0,1787847.53
VISKASE CORP,LOUDON,LOUDON,TN,37774,35.742,-84.326194,Plastics and Rubber,NO,1691000,0,0,1758000
ST LAWRENCE ZINC CO BALMAT 4 MINE & MILL,GOUVERNEUR,ST. LAWRENCE,NY,13642,44.265028,-75.408139,Metal Mining,NO,787,819,0,1733259
TRONOX LLC,HAMILTON,MONROE,MS,39746,33.730556,-88.4525,Chemicals,NO,0,81.5,0,1729446.5
ASARCO LLC MISSION COMPLEX,SAHUARITA,PIMA,AZ,85629,31.998092,-111.052412,Metal Mining,NO,5.907,0.518,0,1721113.706
EQUISTAR CHEMICALS CLINTON PLANT,CLINTON,CLINTON,IA,52732,41.807,-90.296,Chemicals,NO,541595.7,0,0,1719916
FORT KNOX MINE,FAIRBANKS,FAIRBANKS NORTH STAR BOROUGH,AK,99712,64.99953,-147.358107,Metal Mining,NO,29,0,0,1700156
CHEVRON PRODUCTS CO. DIV OF CHEVRON USA INC.,EL SEGUNDO,LOS ANGELES,CA,90245,33.9082,-118.4085,Petroleum,NO,0,1700000,0,1700000
FREEPORT-MCMORAN SIERRITA INC,GREEN VALLEY,PIMA,AZ,85614,31.876444,-111.100472,Metal Mining,NO,7.7,0,0,1673174.9
INEOS PIGMENTS USA INC,ASHTABULA,ASHTABULA,OH,44004,41.889223,-80.763715,Chemicals,NO,0,105000,0,1673000
ASCEND PERFORMANCE MATERIALS-CHOCOLATE BAYOU PLANT,ALVIN,BRAZORIA,TX,775110000,29.231225,-95.196088,Chemicals,YES,0,0,0,1665939
WHARF RESOURCES,LEAD,LAWRENCE,SD,57754,44.34444,-103.86166,Metal Mining,NO,0.17,0,0,1619385.16
ISP TECHNOLOGIES INC,TEXAS CITY,GALVESTON,TX,77590,29.428586,-94.968558,Chemicals,NO,0,0,0,1611579
BLANCHARD REFINING CO LLC,TEXAS CITY,GALVESTON,TX,77590,29.374444,-94.925,Petroleum,NO,185000,6400,0,1603400
COEUR ALASKA INC KENSINGTON GOLD PROJECT,JUNEAU,JUNEAU CITY AND BOROUGH,AK,99801,58.86749,-135.104756,Metal Mining,NO,3,183,0,1590186
TERRA NITROGEN L.P. VERDIGRIS PLANT,CLAREMORE,ROGERS,OK,74019,36.233516,-95.719098,Chemicals,NO,1313983,4949,0,1587016
INEOS NITRILES USA LLC,LIMA,ALLEN,OH,45804,40.71416,-84.13223,Chemicals,NO,1034,0,0,1565215
NEVADA GOLD MINES LLC - PHOENIX MINE,BATTLE MOUNTAIN,LANDER,NV,89820,40.50066,-117.10615,Metal Mining,NO,0,0,0,1560923
CF INDUSTRIES NITROGEN LLC-PORT NEAL NITROGEN COMPLEX,SERGEANT BLUFF,WOODBURY,IA,51054,42.328004,-96.363891,Chemicals,NO,899237,25042,0,1558809
NEVADA GOLD MINES LLC - TURQUOISE RIDGE,GOLCONDA,HUMBOLDT,NV,89414,41.216,-117.212,Metal Mining,NO,4,0,0,1532509
NEVADA GOLD MINES LLC - ARTURO MINE,CARLIN,ELKO,NV,89822,41.025306,-116.413314,Metal Mining,NO,0,0,0,1514485.1
FORT KNOX MINE,FAIRBANKS,FAIRBANKS NORTH STAR BOROUGH,AK,99712,64.99953,-147.358107,Metal Mining,YES,17,0,0,1500017
NEVADA GOLD MINES LLC - GOLDSTRIKE MINES INC,CARLIN,ELKO,NV,89822,40.974445,-116.349998,Metal Mining,NO,3,0,0,1496009
FREEPORT-MCMORAN SAFFORD INC,SAFFORD,GRAHAM,AZ,85546,32.958333,-109.675,Metal Mining,NO,0.1,0,0,1490199.1
ASCEND PERFORMANCE MATERIALS-CHOCOLATE BAYOU PLANT,ALVIN,BRAZORIA,TX,775110000,29.231225,-95.196088,Chemicals,NO,0,0,0,1454061
ASCEND PERFORMANCE MATERIALS OPERATIONS LLC,CANTONMENT,ESCAMBIA,FL,325338926,30.596678,-87.251977,Chemicals,NO,6540,0,0,1446540
CHEVRON PRODUCTS CO PASCAGOULA REFINERY,PASCAGOULA,JACKSON,MS,39581,30.343733,-88.4938,Petroleum,NO,0,1443000,0,1443000
CF INDUSTRIES NITROGEN LLC,DONALDSONVILLE,ASCENSION PARISH,LA,70346,30.098563,-90.95599,Chemicals,NO,0,1407909,0,1407909
CLIMAX MOLYBDENUM CO-HENDERSON MINE,EMPIRE,CLEAR CREEK,CO,80438,39.7591,-105.8404,Metal Mining,NO,0,750,0,1401000
SMOKY VALLEY COMMON OPERATION,ROUND MOUNTAIN,NYE,NV,89045,38.716408,-117.101879,Metal Mining,YES,7,0,0,1400013
MP MINE OPERATIONS LLC,MOUNTAIN PASS,SAN BERNARDINO,CA,92366,35.47129,-115.52864,Metal Mining,NO,3,1,0,1384319
ASARCO LLC RAY MINE OPERATIONS,KEARNY,PINAL,AZ,85137,33.156,-110.978,Metal Mining,NO,0.5,0,0,1350293.2
PCS PHOSPHATE CO INC,AURORA,BEAUFORT,NC,27806,35.37745,-76.778816,Chemicals,NO,1291874,0,0,1349349
VISKASE COS INC,OSCEOLA,MISSISSIPPI,AR,72370,35.652289,-89.939752,Plastics and Rubber,NO,1342293,393,0,1346176
FORT KNOX MINE,FAIRBANKS,FAIRBANKS NORTH STAR BOROUGH,AK,99712,64.99953,-147.358107,Metal Mining,NO,57.6,0,0,1335291.3
PINTO VALLEY MINE,MIAMI,GILA,AZ,85539,33.417445,-110.98421,Metal Mining,NO,86,0,0,1324498
FREEPORT-MCMORAN MORENCI INC,MORENCI,GREENLEE,AZ,85540,33.065,-109.34222,Metal Mining,NO,250,0,0,1300250
POGO MINE,DELTA JUNCTION,SOUTHEAST FAIRBANKS CENSU,AK,99737,64.449722,-144.939623,Metal Mining,NO,0,356748,0,1299133
SOLVAY SPECIALTY POLYMERS USA,BORGER,HUTCHINSON,TX,79008,35.700664,-101.356294,Chemicals,NO,1268.28,0,0,1275445.71
RED DOG OPERATIONS,KOTZEBUE,NORTHWEST ARCTIC BOROUGH,AK,99752,68.061507,-162.855492,Metal Mining,YES,3.8,0,0,1269859.8
CLIMAX MOLYBDENUM CO HENDERSON MILL,PARSHALL,GRAND,CO,80468,39.858306,-106.083374,Metal Mining,NO,1.2,0,0,1260075
CHEMOURS DELISLE PLANT,PASS CHRISTIAN,HARRISON,MS,39571,30.389186,-89.308892,Chemicals,NO,6,2,0,1232077
INEOS NITRILES USA LLC,LIMA,ALLEN,OH,45804,40.71416,-84.13223,Chemicals,NO,1738,0,0,1218760
KRATON CORP,BELPRE,WASHINGTON,OH,45714,39.281072,-81.637901,Chemicals,NO,0,1209160,0,1209160
FORT KNOX MINE,FAIRBANKS,FAIRBANKS NORTH STAR BOROUGH,AK,99712,64.99953,-147.358107,Metal Mining,NO,0,0,0,1202400
NEVADA GOLD MINES LLC - GOLDSTRIKE MINES INC,CARLIN,ELKO,NV,89822,40.974445,-116.349998,Metal Mining,NO,5,0,0,1196587
EAST DUBUQUE NITROGEN FERTILIZERS LLC,EAST DUBUQUE,JO DAVIESS,IL,61025,42.44311,-90.55686,Chemicals,NO,1056211,4849,0,1196367
SYNGENTA CROP PROTECTION LLC SAINT GABRIEL FACILITY,SAINT GABRIEL,IBERVILLE PARISH,LA,70776,30.2413,-91.1009,Chemicals,NO,0,1194481,0,1194481
FREEPORT-MCMORAN MORENCI INC,MORENCI,GREENLEE,AZ,85540,33.065,-109.34222,Metal Mining,NO,0.6,0,0,1188723.6
ASCEND PERFORMANCE MATERIALS-CHOCOLATE BAYOU PLANT,ALVIN,BRAZORIA,TX,775110000,29.231225,-95.196088,Chemicals,NO,3399,0,0,1179024
NYRSTAR CLARKSVILLE INC,CLARKSVILLE,MONTGOMERY,TN,37040,36.518398,-87.40293,Metal Mining,NO,7,149,0,1172314.77
THE DOW CHEMICAL CO - LOUISIANA OPERATIONS,PLAQUEMINE,IBERVILLE PARISH,LA,70764,30.320903,-91.239015,Chemicals,NO,1119088,47789,0,1168710
NUTRIEN US LLC,BORGER,HUTCHINSON,TX,79007,35.6417,-101.4228,Chemicals,NO,412237,1411,0,1140702
POGO MINE,DELTA JUNCTION,SOUTHEAST FAIRBANKS CENSU,AK,99737,64.449722,-144.939623,Metal Mining,NO,2.77,214.4,0,1130530.69
NYRSTAR COY-MINE,JEFFERSON CITY,JEFFERSON,TN,37760,36.109834,-83.515469,Metal Mining,NO,0,2769,0,1129678.9
POGO MINE,DELTA JUNCTION,SOUTHEAST FAIRBANKS CENSU,AK,99737,64.449722,-144.939623,Metal Mining,NO,0.9,13.85,0,1079580.57
MARIGOLD MINING CO,VALMY,HUMBOLDT,NV,89438,40.779795,-117.139904,Metal Mining,NO,14.6,0,0,1072054.1
UNION CARBIDE CORP SEADRIFT PLANT,SEADRIFT,CALHOUN,TX,77983,28.510636,-96.771527,Chemicals,NO,897143,0,0,1068736
NEVADA GOLD MINES LLC - GOLDSTRIKE MINES INC,CARLIN,ELKO,NV,89822,40.974445,-116.349998,Metal Mining,NO,63,0,0,1062769
MATERION NATURAL RESOURCES INC MILL,DELTA,MILLARD,UT,84624,39.46657,-112.438488,Metal Mining,NO,155000,0,0,1056309
KOCH FERTILIZER DODGE CITY LLC,DODGE CITY,FORD,KS,67801,37.777013,-99.929746,Chemicals,NO,920000,0,0,1041305
BASF CORP,GEISMAR,ASCENSION PARISH,LA,70734,30.1979,-91.0035,Chemicals,NO,0,1040000,0,1040000
CHEMOURS JOHNSONVILLE PLANT,NEW JOHNSONVILLE,HUMPHREYS,TN,37134,36.043056,-87.981667,Chemicals,NO,150,1288,0,1025485
INEOS PIGMENTS USA INC,ASHTABULA,ASHTABULA,OH,44004,41.893938,-80.749268,Chemicals,NO,0,9300,0,1022300
EASTMAN CHEMICAL CO TEXAS OPERATIONS,LONGVIEW,HARRISON,TX,75602,32.438056,-94.69,Chemicals,NO,276550,0,0,1020029
DYNO NOBEL INC-CHEYENNE PLANT,CHEYENNE,LARAMIE,WY,82001,41.0949,-104.908,Chemicals,NO,282720,0,0,1015902
BP PRODUCTS NA WHITING BUSINESS UNIT,WHITING,LAKE,IN,46394,41.663055,-87.479643,Petroleum,NO,0,1000000,0,1000000
VALERO REFINING-TEXAS LP,TEXAS CITY,GALVESTON,TX,77590,29.369167,-94.911111,Petroleum,NO,0,1000000,0,1000000
SIMPLOT PHOSPHATES LLC,ROCK SPRINGS,SWEETWATER,WY,82901,41.53841,-109.12746,Chemicals,NO,247,0,0,992299.4
EAGLE MINE LLC-HUMBOLDT MILL,CHAMPION,MARQUETTE,MI,49814,46.48541,-87.90505,Metal Mining,NO,23,4.3,0,990049.5
CITGO PETROLEUM CORP,SULPHUR,CALCASIEU PARISH,LA,70665,30.18149,-93.324051,Petroleum,NO,0,989751,0,989751
DUPONT PONTCHARTRAIN WORKS,LA PLACE,ST. JOHN THE BAPTIST PARISH,LA,70068,30.0589,-90.5241,Chemicals,NO,0,0,0,978594
LYONDELL CHEMICAL CO,CHANNELVIEW,HARRIS,TX,77530,29.816654,-95.107603,Chemicals,NO,19158,0,0,977358
U.S. SILVER - IDAHO INC,WALLACE,SHOSHONE,ID,83873,47.48289,-115.961552,Metal Mining,NO,0,73,0,970118
FORT KNOX MINE,FAIRBANKS,FAIRBANKS NORTH STAR BOROUGH,AK,99712,64.99953,-147.358107,Metal Mining,NO,10,0,0,970043
FORT KNOX MINE,FAIRBANKS,FAIRBANKS NORTH STAR BOROUGH,AK,99712,64.99953,-147.358107,Metal Mining,NO,0,0,0,970000
WESTLAKE LONGVIEW CORP,LONGVIEW,HARRISON,TX,75602,32.439278,-94.688436,Chemicals,NO,403865,0,0,946065
METHANEX USA SERVICES LLC,GEISMAR,ASCENSION PARISH,LA,70734,30.206667,-91.020833,Chemicals,NO,944765.005,0,0,944765.178
INEOS NITRILES USA LLC,LIMA,ALLEN,OH,45804,40.71416,-84.13223,Chemicals,YES,0,0,0,944515
NYRSTAR- IMMEL MINE,MASCOT,KNOX,TN,37806,36.06311,-83.70596,Metal Mining,NO,91.4,406,0,935122.2
RUBICON LLC,GEISMAR,ASCENSION PARISH,LA,70734,30.1989,-91.0085,Chemicals,NO,0,0,0,930000
JEWELL COKE CO LP,OAKWOOD,BUCHANAN,VA,24631,37.234409,-82.036899,Petroleum,NO,915400,0,0,915400
ERGON REFINING INC,VICKSBURG,WARREN,MS,39183,32.386368,-90.90834,Petroleum,NO,870376,34904,0,911777.9
SMOKY VALLEY COMMON OPERATION,ROUND MOUNTAIN,NYE,NV,89045,38.716408,-117.101879,Metal Mining,NO,15.8,0,0,907108.3
TRONOX LLC,HAMILTON,MONROE,MS,39746,33.730556,-88.4525,Chemicals,NO,0,98.09,0,891180.09
LOUISIANA PIGMENT CO LP,WESTLAKE,CALCASIEU PARISH,LA,70669,30.196389,-93.306944,Chemicals,NO,5,250,0,880505
GOODYEAR TIRE & RUBBER CO,BEAUMONT,JEFFERSON,TX,77705,29.976111,-94.218333,Chemicals,NO,28568.08,0,0,871477.66
NEVADA GOLD MINES LLC - CARLIN SOUTH AREA,CARLIN,EUREKA,NV,89822,40.7813,-116.1858,Metal Mining,NO,16,0,0,871088
NEVADA GOLD MINES LLC - GOLDSTRIKE MINES INC,CARLIN,ELKO,NV,89822,40.974445,-116.349998,Metal Mining,YES,33,0,0,870838
BALD MOUNTAIN MINE,ELKO,WHITE PINE,NV,89803,39.946842,-115.623068,Metal Mining,NO,12.4,0,0,856170.4
CF INDUSTRIES NITROGEN LLC-PORT NEAL NITROGEN COMPLEX,SERGEANT BLUFF,WOODBURY,IA,51054,42.328004,-96.363891,Chemicals,NO,0,851360,0,851360
BASF CORP - FREEPORT SITE,FREEPORT,BRAZORIA,TX,77541,29.002075,-95.399777,Chemicals,NO,0,846154,0,846154
LION COPOLYMER GEISMAR LLC,GEISMAR,ASCENSION PARISH,LA,70734,30.205556,-91.006944,Chemicals,NO,806843,0,0,834441
CHEMOURS DELISLE PLANT,PASS CHRISTIAN,HARRISON,MS,39571,30.389186,-89.308892,Chemicals,NO,9,0.3,0,834256.3
TERRA INTERNATIONAL (OKLAHOMA) LLC.,WOODWARD,WOODWARD,OK,73801,36.438556,-99.464083,Chemicals,NO,691686,886,0,821129
ASCEND PERFORMANCE MATERIALS OPERATIONS LLC-DECATUR PLANT,DECATUR,MORGAN,AL,35601,34.633889,-87.024444,Chemicals,NO,0,805645,0,805645
INEOS NITRILES USA LLC           GREEN LAKE PLANT,PORT LAVACA,CALHOUN,TX,77979,28.570964,-96.83341,Chemicals,NO,0,26.5,0,801673.5
LSB CHEMICAL L.L.C.,PRYOR,MAYES,OK,74361,36.241247,-95.278349,Chemicals,NO,275971.92,0,0,800785.96
NYRSTAR CLARKSVILLE INC,CLARKSVILLE,MONTGOMERY,TN,37040,36.518398,-87.40293,Metal Mining,YES,194,674,0,795956
NEVADA GOLD MINES LLC - GOLDSTRIKE MINES INC,CARLIN,ELKO,NV,89822,40.974445,-116.349998,Metal Mining,NO,8,0,0,795435
CHINO MINES CO MINE CONCENTRATOR-SXEW PLANTS,VANADIUM,GRANT,NM,88023,32.791667,-108.067222,Metal Mining,NO,0.5,0,0,790072.4
FORMOSA PLASTICS CORP TEXAS,POINT COMFORT,CALHOUN,TX,77978,28.69759,-96.542101,Chemicals,NO,703369,0,0,785087
NEVADA GOLD MINES LLC - CARLIN SOUTH AREA,CARLIN,EUREKA,NV,89822,40.7813,-116.1858,Metal Mining,NO,4,0,0,781078
EASTMAN CHEMICAL CO TENNESSEE OPERATIONS,KINGSPORT,SULLIVAN,TN,37660,36.527055,-82.53858,Chemicals,NO,0,775926,0,775926
OCEANAGOLD HAILE GOLD MINE,KERSHAW,LANCASTER,SC,29067,34.597431,-80.532552,Metal Mining,NO,0.65,0,0,775030.65
EXXONMOBIL BATON ROUGE CHEMICAL PLANT (PART),BATON ROUGE,EAST BATON ROUGE PARISH,LA,70805,30.495769,-91.173111,Chemicals,NO,140000,0,0,770000
INEOS PIGMENTS USA INC,ASHTABULA,ASHTABULA,OH,44004,41.893938,-80.749268,Chemicals,NO,760000,0,0,760000
ONYX COLLECTION INC,BELVUE,POTTAWATOMIE,KS,66407,39.215232,-96.176369,Plastics and Rubber,YES,750849,0,0,751599
PCS PHOSPHATE CO INC,AURORA,BEAUFORT,NC,27806,35.37745,-76.778816,Chemicals,NO,69.1,0,0,741560.834
FUTAMURA USA INC,TECUMSEH,SHAWNEE,KS,66542,39.05336,-95.557551,Chemicals,NO,665819,18754,0,732429
NEVADA GOLD MINES LLC - CARLIN SOUTH AREA,CARLIN,EUREKA,NV,89822,40.7813,-116.1858,Metal Mining,NO,56,0,0,729840
CHEMOURS WASHINGTON WORKS,WASHINGTON,WOOD,WV,26181,39.271944,-81.661667,Chemicals,NO,0,726049,0,726049
ADVANSIX INC HOPEWELL PLANT,HOPEWELL,HOPEWELL (CITY),VA,23860,37.3009,-77.2722,Chemicals,NO,667589,34926,0,724334
PCS PHOSPHATE CO INC,AURORA,BEAUFORT,NC,27806,35.37745,-76.778816,Chemicals,NO,588527,0,0,721318.1
NEVADA GOLD MINES LLC-CORTEZ DISTRICT,CRESCENT VALLEY,LANDER,NV,89821,40.205,-116.6657,Metal Mining,YES,0,0,0,712929
NEVADA GOLD MINES LLC-CORTEZ DISTRICT,CRESCENT VALLEY,LANDER,NV,89821,40.205,-116.6657,Metal Mining,NO,4,0,0,705667
NUCERA SOLUTIONS LLC,BARNSDALL,OSAGE,OK,74002,36.554524,-96.162501,Chemicals,NO,8004,0,0,690233
SABIC INNOVATIVE PLASTICS MT. VERNON LLC,MOUNT VERNON,POSEY,IN,47620,37.9072,-87.9271,Chemicals,NO,0,690189,0,690189
SEKISUI SPECIALTY CHEMICALS AMERICA LLC,CALVERT CITY,MARSHALL,KY,42029,37.043889,-88.3525,Chemicals,NO,380178,0,0,682383
CHEVRON PHILLIPS CHEMICAL CO LP,BAYTOWN,HARRIS,TX,77521,29.826,-94.921917,Chemicals,NO,587652,0,0,681687
P4 PRODUCTION LLC,SODA SPRINGS,CARIBOU,ID,83276,42.687031,-111.5878,Chemicals,NO,165,81.25,0,679962
SCOTTS CO,MARYSVILLE,UNION,OH,43041,40.209703,-83.313333,Chemicals,NO,676804,107,0,676911
NEVADA GOLD MINES LLC - PHOENIX MINE,BATTLE MOUNTAIN,LANDER,NV,89820,40.50066,-117.10615,Metal Mining,NO,0,0,0,676502
KOCH FERTILIZER FT. DODGE LLC,DUNCOMBE,WEBSTER,IA,50532,42.499406,-94.017177,Chemicals,NO,534802,9,0,675360
EXXONMOBIL OIL CORP JOLIET REFINERY,CHANNAHON,WILL,IL,60410,41.413831,-88.18346,Petroleum,NO,672311.8,0,0,672313
PHILLIPS 66 CO SWEENY REFINERY COMPLEX,OLD OCEAN,BRAZORIA,TX,77463,29.070847,-95.750363,Petroleum,NO,0,670528,0,670528
ASCEND PERFORMANCE MATERIALS-CHOCOLATE BAYOU PLANT,ALVIN,BRAZORIA,TX,775110000,29.231225,-95.196088,Chemicals,NO,7642,0,0,660269
KURARAY AMERICA INC,LAPORTE,HARRIS,TX,77571,29.702719,-95.03659,Chemicals,NO,68000,0,0,652182
ASCEND PERFORMANCE MATERIALS OPERATIONS LLC,CANTONMENT,ESCAMBIA,FL,325338926,30.596678,-87.251977,Chemicals,NO,4900,0,0,651687
J R SIMPLOT CO DON SID ING,POCATELLO,POWER,ID,83204,42.9089,-112.5239,Chemicals,NO,1,0,0,640944
THE DOW CHEMICAL CO - LOUISIANA OPERATIONS,PLAQUEMINE,IBERVILLE PARISH,LA,70764,30.320903,-91.239015,Chemicals,NO,481129,0,0,622186
LSB CHEMICAL L.L.C,EL DORADO,UNION,AR,71730,33.26584,-92.688678,Chemicals,NO,0,621865.73,0,621865.73
INEOS NITRILES USA LLC           GREEN LAKE PLANT,PORT LAVACA,CALHOUN,TX,77979,28.570964,-96.83341,Chemicals,NO,0,0,0,616259
RUBICON LLC,GEISMAR,ASCENSION PARISH,LA,70734,30.1989,-91.0085,Chemicals,NO,8700,0,0,613700
INEOS NITRILES USA LLC           GREEN LAKE PLANT,PORT LAVACA,CALHOUN,TX,77979,28.570964,-96.83341,Chemicals,YES,0,0,0,602337
OCEANAGOLD HAILE GOLD MINE,KERSHAW,LANCASTER,SC,29067,34.597431,-80.532552,Metal Mining,NO,2,12,0,600014.3
OCEANAGOLD HAILE GOLD MINE,KERSHAW,LANCASTER,SC,29067,34.597431,-80.532552,Metal Mining,YES,1.9,2.8,0,600005.04
OHIO REFINING CO,OREGON,LUCAS,OH,43616,41.679167,-83.449722,Petroleum,NO,0,600000,0,600000
FORT KNOX MINE,FAIRBANKS,FAIRBANKS NORTH STAR BOROUGH,AK,99712,64.99953,-147.358107,Metal Mining,YES,25,0,0,590030
CF INDUSTRIES NITROGEN LLC - YAZOO CITY MISSISSIPPI PLANT,YAZOO CITY,YAZOO,MS,39194,32.904606,-90.383153,Chemicals,NO,406685,15306,0,589932
IOWA FERTILIZER CO,WEVER,LEE,IA,52658,40.69,-91.23,Chemicals,NO,220000,14000,0,584000
TESORO LOS ANGELES REFINERY-CARSON OPERATIONS,CARSON,LOS ANGELES,CA,90745,33.815889,-118.243953,Petroleum,NO,580000,32,0,581732
NEVADA GOLD MINES LLC - CARLIN SOUTH AREA,CARLIN,EUREKA,NV,89822,40.7813,-116.1858,Metal Mining,NO,46,0,0,577468
FLETCHER MINE/MILL,CENTERVILLE,REYNOLDS,MO,63633,37.46674,-91.11035,Metal Mining,NO,2.63,1.42,0,574917.94
AJINOMOTO HEALTH & NUTRITION N.A. INC.,EDDYVILLE,MONROE,IA,52553,41.143573,-92.647934,Chemicals,NO,0,574384,0,574384
CORNERSTONE CHEMICAL CO,WESTWEGO,JEFFERSON PARISH,LA,70094,29.958889,-90.270472,Chemicals,NO,0,20,0,564127
FUTAMURA USA INC,TECUMSEH,SHAWNEE,KS,66542,39.05336,-95.557551,Chemicals,NO,563170,0,0,563420
MOSAIC FERTILIZER LLC-NEW WALES PLANT,MULBERRY,POLK,FL,33860,27.834363,-82.049256,Chemicals,NO,9000,0,0,559000
KOPPERS PERFORMANCE CHEMICALS,HUBBELL,HOUGHTON,MI,49934,47.176103,-88.424919,Chemicals,NO,335407,0,0,554071
LSB CHEMICAL LLC,CHEROKEE,COLBERT,AL,35616,34.80302,-87.93974,Chemicals,NO,189523,2591,0,553188
COEUR ALASKA INC KENSINGTON GOLD PROJECT,JUNEAU,JUNEAU CITY AND BOROUGH,AK,99801,58.86749,-135.104756,Metal Mining,NO,0,549000,0,549055.3
ASCEND PERFORMANCE MATERIALS-CHOCOLATE BAYOU PLANT,ALVIN,BRAZORIA,TX,775110000,29.231225,-95.196088,Chemicals,NO,2558,0,0,540096
EXPLORE INDUSTRIES USA INC,KNOXVILLE,KNOX,TN,37914,35.949168,-83.844604,Plastics and Rubber,YES,537700,0,0,537705
NEVADA GOLD MINES LLC - CARLIN SOUTH AREA,CARLIN,EUREKA,NV,89822,40.7813,-116.1858,Metal Mining,NO,3,0,0,536982
FORMOSA PLASTICS CORP TEXAS,POINT COMFORT,CALHOUN,TX,77978,28.69759,-96.542101,Chemicals,NO,476034,0,0,535699
NEVADA GOLD MINES LLC - PHOENIX MINE,BATTLE MOUNTAIN,LANDER,NV,89820,40.50066,-117.10615,Metal Mining,NO,0,0,0,534805
MOBIL CHEMICAL CO BEAUMONT POLYETHYLENE PLANT,BEAUMONT,JEFFERSON,TX,77713,30.068247,-94.23005,Chemicals,NO,400000,0,0,532000
EXXONMOBIL BATON ROUGE REFINERY (PART),BATON ROUGE,EAST BATON ROUGE PARISH,LA,70805,30.484917,-91.17392,Petroleum,NO,0,530000,0,530000
PHILLIPS 66 RODEO RENEWABLE ENERGY COMPLEX,RODEO,CONTRA COSTA,CA,94572,38.0436,-122.2532,Petroleum,NO,0,528743,0,528743
CF INDUSTRIES NITROGEN LLC - YAZOO CITY MISSISSIPPI PLANT,YAZOO CITY,YAZOO,MS,39194,32.904606,-90.383153,Chemicals,NO,0,519715,0,520029
W R GRACE & CO-CONN GRACE,SULPHUR,CALCASIEU PARISH,LA,70665,30.156194,-93.339443,Chemicals,NO,400348,29660,0,519095
PCS NITROGEN FERTILIZER LP,GEISMAR,ASCENSION PARISH,LA,70734,30.225784,-91.053154,Chemicals,NO,432094,7173,0,504765
3M CHEMICAL OPERATIONS' COTTAGE GROVE FACILITY,COTTAGE GROVE,WASHINGTON,MN,55016,44.789444,-92.908333,Chemicals,NO,0,501409,0,501409
TRAPPER MINING INC.,CRAIG,MOFFAT,CO,81625,40.449722,-107.565833,Coal Mining,NO,0,34.59,0,500409.59
FREEPORT-MCMORAN MORENCI INC,MORENCI,GREENLEE,AZ,85540,33.065,-109.34222,Metal Mining,NO,0,0,0,500005
EXXONMOBIL REFINING & SUPPLY BAYTOWN REFINERY (PART),BAYTOWN,HARRIS,TX,775202099,29.739444,-95.006944,Petroleum,NO,0,500000,0,500000
WESTINGHOUSE ELECTRIC CO LLC,HOPKINS,RICHLAND,SC,29061,33.881944,-80.920556,Chemicals,NO,0,497915,0,497915
EXXONMOBIL OIL CORP JOLIET REFINERY,CHANNAHON,WILL,IL,60410,41.413831,-88.18346,Petroleum,NO,0,497864.9,0,497864.9
CF INDUSTRIES NITROGEN LLC,DONALDSONVILLE,ASCENSION PARISH,LA,70346,30.098563,-90.95599,Chemicals,NO,463285,0,0,492113
BRUSHY CREEK MINE/MILL,BOSS,REYNOLDS,MO,65440,37.53797,-91.12926,Metal Mining,NO,3.57,1.73,0,480848.17
OCEANAGOLD HAILE GOLD MINE,KERSHAW,LANCASTER,SC,29067,34.597431,-80.532552,Metal Mining,NO,1.4,12,0,480013.6
TAMINCO US LLC,SAINT GABRIEL,IBERVILLE PARISH,LA,70776,30.250833,-91.092278,Chemicals,NO,0,474096,0,474096
EASTMAN CHEMICAL CO TENNESSEE OPERATIONS,KINGSPORT,SULLIVAN,TN,37660,36.527055,-82.53858,Chemicals,NO,215008,1697,0,473611
"KOCH FERTILIZER BEATRICE,LLC",BEATRICE,GAGE,NE,68310,40.319088,-96.8414,Chemicals,NO,360000,3600,0,473600
ASCEND PERFORMANCE MATERIALS OPERATIONS LLC,CANTONMENT,ESCAMBIA,FL,325338926,30.596678,-87.251977,Chemicals,NO,2692,0,0,471863
ARCOSA MARINE PRODUCTS INC PLT  73,CARUTHERSVILLE,PEMISCOT,MO,63830,36.228451,-89.701149,Plastics and Rubber,YES,0,0,0,470025.02
MARTINEZ REFINING CO LLC,MARTINEZ,CONTRA COSTA,CA,94553,38.016594,-122.115392,Petroleum,NO,0,470000,0,470000
LOUISIANA INTEGRATED POLYETHYLENE JV LLC,WESTLAKE,CALCASIEU PARISH,LA,70669,30.24502,-93.27563,Chemicals,NO,375524,0,0,457844
UOP-SHREVEPORT PLANT,SHREVEPORT,CADDO PARISH,LA,71107,32.61514,-93.92517,Chemicals,NO,22409,10,0,457083
ASCEND PERFORMANCE MATERIALS OPERATIONS LLC,CANTONMENT,ESCAMBIA,FL,325338926,30.596678,-87.251977,Chemicals,NO,216,0,0,455706
DIAMOND SHAMROCK REFINING CO LP,SUNRAY,MOORE,TX,79086,35.951944,-101.873889,Petroleum,NO,5,0,0,452046
RUBICON LLC,GEISMAR,ASCENSION PARISH,LA,70734,30.1989,-91.0085,Chemicals,NO,0,0,0,450000
J R SIMPLOT CO DON SID ING,POCATELLO,POWER,ID,83204,42.9089,-112.5239,Chemicals,NO,271610,0,0,449570
DOW SABINE RIVER OPERATIONS,ORANGE,ORANGE,TX,77630,30.054796,-93.753863,Chemicals,NO,351315,0,0,449239
ASCEND PERFORMANCE MATERIALS OPERATIONS LLC,CANTONMENT,ESCAMBIA,FL,325338926,30.596678,-87.251977,Chemicals,NO,2932,0,0,446985
RUBICON LLC,GEISMAR,ASCENSION PARISH,LA,70734,30.1989,-91.0085,Chemicals,NO,1200,0,0,442500
PCS NITROGEN FERTILIZER LP,GEISMAR,ASCENSION PARISH,LA,70734,30.225784,-91.053154,Chemicals,NO,0,442124,0,442248
CITGO REFINING & CHEMICALS CO LP EAST PLANT,CORPUS CHRISTI,NUECES,TX,78407,27.80962,-97.425869,Petroleum,NO,440635.08,0,0,440635.08
P4 PRODUCTION LLC,SODA SPRINGS,CARIBOU,ID,83276,42.687031,-111.5878,Chemicals,NO,3690,26.2,0,434401.93
SOLVAY CHEMICALS INC,LA PORTE,HARRIS,TX,77571,29.717028,-95.085,Chemicals,NO,0,432703,0,432703
DCL - BUSHY PARK FACILITY,GOOSE CREEK,BERKELEY,SC,29445,32.983056,-79.924444,Chemicals,NO,724,11331,0,426605
J R SIMPLOT CO DON SID ING,POCATELLO,POWER,ID,83204,42.9089,-112.5239,Chemicals,NO,20001,0,0,424702
OCCIDENTAL CHEMICAL CORP LULING,LULING,ST. CHARLES PARISH,LA,70070,29.9307,-90.34736,Chemicals,NO,99000,0,0,421800
J R SIMPLOT CO DON SID ING,POCATELLO,POWER,ID,83204,42.9089,-112.5239,Chemicals,NO,13,0,0,420171.6
LANXESS - WEST PLANT,MAGNOLIA,COLUMBIA,AR,71753,33.18557,-92.704483,Chemicals,NO,1,0,0,418949
LYONDELL CHEMICAL CO,CHANNELVIEW,HARRIS,TX,77530,29.816654,-95.107603,Chemicals,YES,44808,0,0,418797
INV NYLON CHEMICALS AMERICAS VICTORIA SITE,VICTORIA,VICTORIA,TX,77905,28.673056,-96.953611,Chemicals,NO,0,36052,0,410684
BASIN ELECTRIC ANTELOPE VALLEY STATION,BEULAH,MERCER,ND,58523,47.370445,-101.838042,Chemicals,NO,279,0,0,407279
LSB CHEMICAL L.L.C,EL DORADO,UNION,AR,71730,33.26584,-92.688678,Chemicals,NO,207704.19,58527,0,404546.01
INV NYLON CHEMICALS AMERICAS VICTORIA SITE,VICTORIA,VICTORIA,TX,77905,28.673056,-96.953611,Chemicals,NO,956,0,0,403738
EXXONMOBIL REFINING & SUPPLY BAYTOWN REFINERY (PART),BAYTOWN,HARRIS,TX,775202099,29.739444,-95.006944,Petroleum,NO,400000,0,0,403300
SIMPLOT PHOSPHATES LLC,ROCK SPRINGS,SWEETWATER,WY,82901,41.53841,-109.12746,Chemicals,NO,25.93,0,0,400009.39
NEVADA GOLD MINES LLC - TURQUOISE RIDGE,GOLCONDA,HUMBOLDT,NV,89414,41.216,-117.212,Metal Mining,NO,25,0,0,399818
M. ARGUESO & CO. INC. (D.B.A PARAMELT),MUSKEGON,MUSKEGON,MI,49441,43.20176,-86.29324,Chemicals,NO,9.79,0,0,399481.821
CHEMTALL INCORPORATED; FLOCRYL LLC,RICEBORO,LIBERTY,GA,31323,31.743668,-81.431776,Chemicals,NO,390000,15,0,398415
KOCH FERTILIZER DODGE CITY LLC,DODGE CITY,FORD,KS,67801,37.777013,-99.929746,Chemicals,NO,26000,0,0,396010
HUNTSMAN PETROCHEMICAL LLC PORT NECHES FACILITY,PORT NECHES,JEFFERSON,TX,77651,29.972738,-93.94853,Chemicals,YES,0,394115,0,394115
CHEMOURS CHAMBERS WORKS,DEEPWATER,SALEM,NJ,8023,39.682362,-75.491379,Chemicals,NO,0.001,393124,0,393189.004
BP PRODUCTS NA WHITING BUSINESS UNIT,WHITING,LAKE,IN,46394,41.663055,-87.479643,Petroleum,NO,315000,250,0,391250
EAGLE MINE LLC-HUMBOLDT MILL,CHAMPION,MARQUETTE,MI,49814,46.48541,-87.90505,Metal Mining,YES,0.8,21,0,390029
ISP TECHNOLOGIES INC,TEXAS CITY,GALVESTON,TX,77590,29.428586,-94.968558,Chemicals,NO,104,0,0,387119
PCS NITROGEN OHIO L.P.,LIMA,ALLEN,OH,45804,40.717499,-84.132274,Chemicals,NO,386618,5,0,386823
ST LAWRENCE ZINC CO BALMAT 4 MINE & MILL,GOUVERNEUR,ST. LAWRENCE,NY,13642,44.265028,-75.408139,Metal Mining,NO,5,27,0,385788
EASTMAN CHEMICAL CO TEXAS OPERATIONS,LONGVIEW,HARRISON,TX,75602,32.438056,-94.69,Chemicals,NO,60412,0,0,384844
VALERO REFINING-TEXAS LP CORPUS CHRISTI WEST PLANT,CORPUS CHRISTI,NUECES,TX,78407,27.81775,-97.482552,Petroleum,NO,381845,0,0,381845
INEOS NITRILES USA LLC,LIMA,ALLEN,OH,45804,40.71416,-84.13223,Chemicals,YES,40293,0,0,380279
SMOKY VALLEY COMMON OPERATION,ROUND MOUNTAIN,NYE,NV,89045,38.716408,-117.101879,Metal Mining,NO,9,0,0,380159
SI GROUP INC,ORANGEBURG,ORANGEBURG,SC,29115,33.472222,-80.873611,Chemicals,YES,376302,886,0,378039
MONTANA RESOURCES LLC,BUTTE,SILVER BOW,MT,59701,46.007588,-112.501703,Metal Mining,NO,0,0,0,376482
JEWELL COKE CO LP,OAKWOOD,BUCHANAN,VA,24631,37.234409,-82.036899,Petroleum,NO,374526,0,0,374526
FIORE GOLD PAN MINE,ELY,WHITE PINE,NV,89315,39.305372,-115.754596,Metal Mining,NO,2.7,0,0,374424.7
FREEPORT-MCMORAN TYRONE INC.,TYRONE,GRANT,NM,88065,32.655198,-108.354804,Metal Mining,NO,0,79.8,0,373103.8
CLIMAX MOLYBDENUM CO-CLIMAX MINE,CLIMAX,LAKE,CO,80429,39.368668,-106.182976,Metal Mining,NO,0,2300,0,372550
OCEANAGOLD HAILE GOLD MINE,KERSHAW,LANCASTER,SC,29067,34.597431,-80.532552,Metal Mining,NO,3.311,0,0,370003.631
NEVADA GOLD MINES LLC - GOLDSTRIKE MINES INC,CARLIN,ELKO,NV,89822,40.974445,-116.349998,Metal Mining,NO,22.4,0,0,366625.2
DAGGER DRAW GAS PLANT,ARTESIA,EDDY,NM,88210,32.71629,-104.44602,Natural Gas Processing,YES,9206.96,0,0,366414.76
FLINT HILLS RESOURCES CORPUS CHRISTI LLC - WEST PLANT,CORPUS CHRISTI,NUECES,TX,78409,27.832011,-97.525582,Petroleum,NO,0,365921,0,365921
NEVADA GOLD MINES LLC - CARLIN SOUTH AREA,CARLIN,EUREKA,NV,89822,40.7813,-116.1858,Metal Mining,NO,84.8,0,0,364443.2
INEOS NITRILES USA LLC           GREEN LAKE PLANT,PORT LAVACA,CALHOUN,TX,77979,28.570964,-96.83341,Chemicals,NO,920.73,0,0,364109
SHELL NORCO CHEMICAL PLANT,NORCO,ST. CHARLES PARISH,LA,70079,30.000964,-90.403863,Chemicals,NO,328438,0,0,361807.88
CORNERSTONE CHEMICAL CO,WESTWEGO,JEFFERSON PARISH,LA,70094,29.958889,-90.270472,Chemicals,YES,0,0,0,361744
INV CAMDEN PLANT,LUGOFF,KERSHAW,SC,29078,34.23458,-80.66584,Chemicals,NO,0,360000,0,360000
MPM SILICONES LLC,WATERFORD,SARATOGA,NY,12188,42.815833,-73.666667,Chemicals,NO,0,360000,0,360000
MOSAIC FERTILIZER LLC-NEW WALES PLANT,MULBERRY,POLK,FL,33860,27.834363,-82.049256,Chemicals,NO,48000,190,0,358190
J R SIMPLOT CO DON SID ING,POCATELLO,POWER,ID,83204,42.9089,-112.5239,Chemicals,NO,15,0,0,357057
3V SIGMA USA,GEORGETOWN,GEORGETOWN,SC,29440,33.362222,-79.383056,Chemicals,YES,68,7.02,0,356906.02
PAULSBORO REFINING CO LLC,PAULSBORO,GLOUCESTER,NJ,8066,39.8401,-75.2574,Petroleum,NO,0,355793,0,355793
VALERO REFINING - NEW ORLEANS LLC,NORCO,ST. CHARLES PARISH,LA,70079,29.985278,-90.392778,Petroleum,NO,352677,0,0,352677
KENNECOTT UTAH COPPER MINE CONCENTRATORS & POWER PLANT,BINGHAM CANYON,SALT LAKE,UT,84006,40.516666,-112.150002,Metal Mining,NO,0,0,0,351413.78
CORNERSTONE CHEMICAL CO,WESTWEGO,JEFFERSON PARISH,LA,70094,29.958889,-90.270472,Chemicals,NO,0,339386,0,350054
EQUISTAR CHEMICALS LP,MORRIS,GRUNDY,IL,60450,41.412897,-88.329773,Chemicals,NO,296542,0,0,348097
PMC BIOGENIX INC,MEMPHIS,SHELBY,TN,38108,35.16677,-89.95893,Chemicals,NO,131366,200,0,347655
BASF CORP - FREEPORT SITE,FREEPORT,BRAZORIA,TX,77541,29.002075,-95.399777,Chemicals,NO,918.3,0,0,347201.73
VISKASE COS INC,OSCEOLA,MISSISSIPPI,AR,72370,35.652289,-89.939752,Plastics and Rubber,NO,343556,0,0,343556
INDORAMA VENTURES,DECATUR,MORGAN,AL,35601,34.6415,-87.0589,Chemicals,NO,0,343405,0,343405
CHEMOURS DELISLE PLANT,PASS CHRISTIAN,HARRISON,MS,39571,30.389186,-89.308892,Chemicals,NO,343220,0,0,343220
MONTANA RESOURCES LLC,BUTTE,SILVER BOW,MT,59701,46.007588,-112.501703,Metal Mining,YES,0,0,0,341595
LOUISIANA PIGMENT CO LP,WESTLAKE,CALCASIEU PARISH,LA,70669,30.196389,-93.306944,Chemicals,NO,5,250,0,340505
FREEPORT-MCMORAN SIERRITA INC,GREEN VALLEY,PIMA,AZ,85614,31.876444,-111.100472,Metal Mining,NO,0,0,0,340250
NEVADA GOLD MINES LLC - GOLDSTRIKE MINES INC,CARLIN,ELKO,NV,89822,40.974445,-116.349998,Metal Mining,NO,0.3,0,0,339073.2
EXXONMOBIL BATON ROUGE REFINERY (PART),BATON ROUGE,EAST BATON ROUGE PARISH,LA,70805,30.484917,-91.17392,Petroleum,NO,330000,1100,0,338900
NEVADA GOLD MINES LLC - PHOENIX MINE,BATTLE MOUNTAIN,LANDER,NV,89820,40.50066,-117.10615,Metal Mining,YES,0,0,0,338366
WESTLAKE POLYMERS LP,SULPHUR,CALCASIEU PARISH,LA,70665,30.196621,-93.32629,Chemicals,NO,321944.32,0,0,337609.79
CHEMOURS JOHNSONVILLE PLANT,NEW JOHNSONVILLE,HUMPHREYS,TN,37134,36.043056,-87.981667,Chemicals,NO,3,129,0,336188
NEVADA GOLD MINES LLC-CORTEZ DISTRICT,CRESCENT VALLEY,LANDER,NV,89821,40.205,-116.6657,Metal Mining,NO,0,0,0,334709
CORNERSTONE CHEMICAL CO,WESTWEGO,JEFFERSON PARISH,LA,70094,29.958889,-90.270472,Chemicals,NO,3091,302,0,330794
INEOS NITRILES USA LLC,LIMA,ALLEN,OH,45804,40.71416,-84.13223,Chemicals,NO,3427,0,0,327529
VALERO REFINING-TEXAS LP CORPUS CHRISTI WEST PLANT,CORPUS CHRISTI,NUECES,TX,78407,27.81775,-97.482552,Petroleum,NO,0,322071,0,322071
NEVADA GOLD MINES LLC - PHOENIX MINE,BATTLE MOUNTAIN,LANDER,NV,89820,40.50066,-117.10615,Metal Mining,NO,2,0,0,321723
SI GROUP INC,ORANGEBURG,ORANGEBURG,SC,29115,33.472222,-80.873611,Chemicals,NO,60086,28597,0,321596
EXXONMOBIL BATON ROUGE REFINERY (PART),BATON ROUGE,EAST BATON ROUGE PARISH,LA,70805,30.484917,-91.17392,Petroleum,NO,320000,0,0,320390
NEVADA GOLD MINES LLC - CARLIN SOUTH AREA,CARLIN,EUREKA,NV,89822,40.7813,-116.1858,Metal Mining,YES,43,0,0,319185
EXXONMOBIL BAYTOWN CHEMICAL PLANT (PART),BAYTOWN,HARRIS,TX,77520,29.73934,-95.022404,Chemicals,NO,220000,0,0,316000
NYRSTAR CLARKSVILLE INC,CLARKSVILLE,MONTGOMERY,TN,37040,36.518398,-87.40293,Metal Mining,NO,6,0,0,315891
CHEMOURS LOUISVILLE PLANT,LOUISVILLE,JEFFERSON,KY,40216,38.217166,-85.841979,Chemicals,NO,309883.7,0,0,315373.3
SMOKY VALLEY COMMON OPERATION,ROUND MOUNTAIN,NYE,NV,89045,38.716408,-117.101879,Metal Mining,NO,11,0,0,314413
EASTMAN CHEMICAL CO TENNESSEE OPERATIONS,KINGSPORT,SULLIVAN,TN,37660,36.527055,-82.53858,Chemicals,NO,97,40,0,313462
MOTIVA-PORT ARTHUR REFINERY,PORT ARTHUR,JEFFERSON,TX,77640,29.883333,-93.958333,Petroleum,NO,312481,0,0,312481
NEVADA GOLD MINES LLC-CORTEZ DISTRICT,CRESCENT VALLEY,LANDER,NV,89821,40.205,-116.6657,Metal Mining,NO,6.9,0,0,311513.8
BASIN ELECTRIC ANTELOPE VALLEY STATION,BEULAH,MERCER,ND,58523,47.370445,-101.838042,Chemicals,NO,1,0,0,310036
FREEPORT-MCMORAN MORENCI INC,MORENCI,GREENLEE,AZ,85540,33.065,-109.34222,Metal Mining,NO,5,0,0,310010
VISKASE CORP,LOUDON,LOUDON,TN,37774,35.742,-84.326194,Plastics and Rubber,NO,310000,0,0,310000
DYNO NOBEL INC,GRAHAM,MUHLENBERG,KY,42344,37.239167,-87.295,Chemicals,NO,0,0,0,308362
MAAX US CORP.,PLYMOUTH,MARSHALL,IN,46563,41.349592,-86.328762,Plastics and Rubber,YES,277362,0,0,308180
EVONIK CORP TIPPECANOE LABORATORIES,LAFAYETTE,TIPPECANOE,IN,47909,40.390544,-86.936174,Chemicals,NO,0,307780,0,307780
FORT KNOX MINE,FAIRBANKS,FAIRBANKS NORTH STAR BOROUGH,AK,99712,64.99953,-147.358107,Metal Mining,NO,15,0,0,303816
NYRSTAR - CUMBERLAND MINE,CARTHAGE,SMITH,TN,37030,36.261722,-85.932487,Metal Mining,NO,71.87,1904.15,0,303389.26
TERRA INTERNATIONAL (OKLAHOMA) LLC.,WOODWARD,WOODWARD,OK,73801,36.438556,-99.464083,Chemicals,NO,5,41466,0,302135
MARATHON PETROLEUM CO LP ILLINOIS REFINING DIV,ROBINSON,CRAWFORD,IL,62454,39.002146,-87.725378,Petroleum,NO,0,301530,0,301530
HECLA LTD LUCKY FRIDAY MINE UNIT,MULLAN,SHOSHONE,ID,83846,47.470047,-115.78342,Metal Mining,NO,0,0,0,298828.35
PHILLIPS 66 LAKE CHARLES REFINERY,WESTLAKE,CALCASIEU PARISH,LA,70669,30.242155,-93.274386,Petroleum,NO,0,293696,0,293696
LANXESS - SOUTH PLANT,EL DORADO,UNION,AR,71730,33.110306,-92.672944,Chemicals,NO,0,0,0,293147
3M CO - TONAWANDA,TONAWANDA,ERIE,NY,14150,42.975756,-78.91827,Chemicals,NO,278000,0,0,293000
SIMPLOT PHOSPHATES LLC,ROCK SPRINGS,SWEETWATER,WY,82901,41.53841,-109.12746,Chemicals,NO,337.16,0,0,289202.16
VALERO THREE RIVERS REFINERY,THREE RIVERS,LIVE OAK,TX,78071,28.456667,-98.190277,Petroleum,NO,0,99511.7,0,288438.899
EQUISTAR CHEMICALS LP - LAKE CHARLES POLYMERS,WESTLAKE,CALCASIEU PARISH,LA,70669,30.193916,-93.321347,Chemicals,NO,269165,0,0,288034
INTERNATIONAL WAXES INC,SMETHPORT,MCKEAN,PA,16749,41.859383,-78.44517,Petroleum,NO,35534,0,0,285063
STILLWATER MINING CO EAST BOULDER MINE,BIG TIMBER,SWEET GRASS,MT,59011,45.724998,-109.891998,Metal Mining,YES,0,0,0,284640
LYONDELL CHEMICAL CO,CHANNELVIEW,HARRIS,TX,77530,29.816654,-95.107603,Chemicals,NO,11320,0,0,284422
MONTANA RESOURCES LLC,BUTTE,SILVER BOW,MT,59701,46.007588,-112.501703,Metal Mining,NO,0,0,0,283164.25
FREEPORT-MCMORAN BAGDAD INC,BAGDAD,YAVAPAI,AZ,86321,34.56849,-113.17552,Metal Mining,NO,0,0,0,280005
AMERICAN CHROME & CHEMICALS,CASTLE HAYNE,NEW HANOVER,NC,28429,34.372516,-77.859466,Chemicals,NO,4,0,0,278865
BLANCHARD REFINING CO LLC,TEXAS CITY,GALVESTON,TX,77590,29.374444,-94.925,Petroleum,NO,0,259000,0,277000
RUBICON LLC,GEISMAR,ASCENSION PARISH,LA,70734,30.1989,-91.0085,Chemicals,YES,1400,0,0,274700
PCS PHOSPHATE CO INC,AURORA,BEAUFORT,NC,27806,35.37745,-76.778816,Chemicals,NO,32.7,0,0,274653.69
NEVADA GOLD MINES LLC - TURQUOISE RIDGE,GOLCONDA,HUMBOLDT,NV,89414,41.216,-117.212,Metal Mining,NO,1.2,0,0,274634.8
NEVADA GOLD MINES LLC-CORTEZ DISTRICT,CRESCENT VALLEY,LANDER,NV,89821,40.205,-116.6657,Metal Mining,NO,104,0,0,274004
EAST DUBUQUE NITROGEN FERTILIZERS LLC,EAST DUBUQUE,JO DAVIESS,IL,61025,42.44311,-90.55686,Chemicals,NO,0,272992,0,272992
KOHLER CO,HUNTSVILLE,MADISON,AL,35824,34.66796,-86.75014,Plastics and Rubber,YES,4514,0,0,272422
SMOKY VALLEY COMMON OPERATION,ROUND MOUNTAIN,NYE,NV,89045,38.716408,-117.101879,Metal Mining,YES,6,0,0,270009
NEVADA GOLD MINES LLC - TURQUOISE RIDGE,GOLCONDA,HUMBOLDT,NV,89414,41.216,-117.212,Metal Mining,NO,1,0,0,266790
INEOS NITRILES USA LLC,LIMA,ALLEN,OH,45804,40.71416,-84.13223,Chemicals,NO,0,0,0,265799
ALON REFINING KROTZ SPRINGS INC,KROTZ SPRINGS,ST. LANDRY PARISH,LA,70750,30.526504,-91.748383,Petroleum,NO,0,263168,0,263168
MOSAIC PHOSPHATES CO FAUSTINA PLANT,SAINT JAMES,ST. JAMES PARISH,LA,70086,30.085,-90.914722,Chemicals,NO,190000,44000,0,263000
NEVADA GOLD MINES LLC - GOLDSTRIKE MINES INC,CARLIN,ELKO,NV,89822,40.974445,-116.349998,Metal Mining,NO,0.1,0,0,262681.3
NEVADA GOLD MINES LLC-CORTEZ DISTRICT,CRESCENT VALLEY,LANDER,NV,89821,40.205,-116.6657,Metal Mining,NO,1,0,0,261645
CHEMOURS BELLE PLANT,BELLE,KANAWHA,WV,25015,38.24377,-81.55393,Chemicals,NO,0,260776,0,260776
M. ARGUESO & CO. INC.,ROSEMEAD,LOS ANGELES,CA,91770,34.05978,-118.0731,Chemicals,NO,1.293,0,0,259645.693
CORNERSTONE CHEMICAL CO,WESTWEGO,JEFFERSON PARISH,LA,70094,29.958889,-90.270472,Chemicals,YES,0,166,0,259624.1
THURSDAY POOLS,FORTVILLE,HANCOCK,IN,46040,39.934324,-85.837121,Plastics and Rubber,YES,257340,0,0,257590
BLANCHARD REFINING CO LLC,TEXAS CITY,GALVESTON,TX,77590,29.374444,-94.925,Petroleum,NO,257000,0,0,257000
HAMILTON BATHWARE,HAMILTON,MARION,AL,35570,34.10973,-87.98925,Plastics and Rubber,YES,256140,0,0,256890
PREMCOR REFINING GROUP INC PORT ARTHUR,PORT ARTHUR,JEFFERSON,TX,77640,29.868333,-93.968333,Petroleum,NO,256332,0,0,256332
DIAMOND SHAMROCK REFINING CO LP,SUNRAY,MOORE,TX,79086,35.951944,-101.873889,Petroleum,NO,0,0,0,255005
INDORAMA VENTURES,DECATUR,MORGAN,AL,35601,34.6415,-87.0589,Chemicals,NO,72180,0,0,253666
LATHAM POOL PRODUCTS INC D/B/A VIKING POOLS-WV,JANE LEW,LEWIS,WV,26378,39.102258,-80.396183,Plastics and Rubber,YES,251829,0,0,251829
HONEYWELL SAFETY PRODUCTS,CLOVER,YORK,SC,29710,35.09756,-81.24049,Plastics and Rubber,NO,236882,0,0,250954
MARATHON PETROLEUM CO LP,GARYVILLE,ST. JOHN THE BAPTIST PARISH,LA,70051,30.06132,-90.59353,Petroleum,NO,0,250518,0,250518
SOLVAY SPECIALTY POLYMERS USA LLC,MARIETTA,WASHINGTON,OH,45750,39.370495,-81.515306,Chemicals,NO,13190,9,0,250446
WHARF RESOURCES,LEAD,LAWRENCE,SD,57754,44.34444,-103.86166,Metal Mining,NO,0,3800,0,250410
MONUMENT GAS PLANT,MONUMENT,LEA,NM,88265,32.624135,-103.292931,Natural Gas Processing,NO,280,0,0,250280
FREEPORT-MCMORAN MORENCI INC,MORENCI,GREENLEE,AZ,85540,33.065,-109.34222,Metal Mining,YES,0,0,0,250005
USS-CLAIRTON PLANT,CLAIRTON,ALLEGHENY,PA,15025,40.305088,-79.876911,Petroleum,NO,60525,0,0,249555
DOW CHEMICAL CO FREEPORT FACILITY,FREEPORT,BRAZORIA,TX,775413257,28.980147,-95.342272,Chemicals,NO,224434,0,0,248229
EXXONMOBIL REFINING & SUPPLY BAYTOWN REFINERY (PART),BAYTOWN,HARRIS,TX,775202099,29.739444,-95.006944,Petroleum,NO,25000,2900,0,247953
COVESTRO LLC,BAYTOWN,CHAMBERS,TX,77523,29.7575,-94.903056,Chemicals,NO,0,244110,0,244110
TSRC SPECIALTY MATERIALS LLC,PLAQUEMINE,IBERVILLE PARISH,LA,70764,30.317014,-91.243777,Chemicals,NO,230000,0,0,244000
COMPOSITE TECHNOLOGY ASSEMBLIES LLC,PLYMOUTH,MARSHALL,IN,46563,41.35157,-86.32413,Plastics and Rubber,YES,182671,0,0,243561
UOP-SHREVEPORT PLANT,SHREVEPORT,CADDO PARISH,LA,71107,32.61514,-93.92517,Chemicals,NO,0,0,0,242820
EASTMAN CHEMICAL CO TENNESSEE OPERATIONS,KINGSPORT,SULLIVAN,TN,37660,36.527055,-82.53858,Chemicals,NO,15,240828,0,241782
ASCEND PERFORMANCE MATERIALS-CHOCOLATE BAYOU PLANT,ALVIN,BRAZORIA,TX,775110000,29.231225,-95.196088,Chemicals,NO,8645,0,0,241479
BETTER WAY PRODUCTS,NEW PARIS,ELKHART,IN,46553,41.466142,-85.838218,Plastics and Rubber,YES,240983,0,0,241285
VALERO REFINING CO-CALI FORNIA BENICIA REFINERY,BENICIA,SOLANO,CA,94510,38.07167,-122.13975,Petroleum,NO,0,240000,0,240000
CHEVRON PHILLIPS CHEMICAL CO LP SWEENY COMPLEX,SWEENY,BRAZORIA,TX,77480,29.081543,-95.741714,Chemicals,NO,55360,0,0,238102
EDWARDS FIBERGLASS,SEDALIA,PETTIS,MO,65301,38.711586,-93.191633,Plastics and Rubber,YES,22,0,0,237722
SI GROUP INC,ORANGEBURG,ORANGEBURG,SC,29115,33.472222,-80.873611,Chemicals,NO,223876,2592,0,236920
EXXONMOBIL REFINING & SUPPLY BAYTOWN REFINERY (PART),BAYTOWN,HARRIS,TX,775202099,29.739444,-95.006944,Petroleum,NO,210000,21000,0,235800
KBK INDUSTRIES LLC,RUSH CENTER,RUSH,KS,67575,38.482337,-99.308835,Plastics and Rubber,YES,176199,0,0,234932.01
LATHAM POOL PRODUCTS INC D/B/A VIKING POOLS-NC,ROCKINGHAM,RICHMOND,NC,28379,34.96423,-79.80917,Plastics and Rubber,YES,234781,0,0,234781
INVISTA LONGVIEW,LONGVIEW,HARRISON,TX,75602,32.433611,-94.711389,Chemicals,NO,99413,0,0,234391
EXPLORE INDUSTRIES USA INC.,MARION,MARION,SC,29571,34.17156,-79.42336,Plastics and Rubber,YES,233400,0,0,233405
ALON USA-BIG SPRING REFINERY,BIG SPRING,HOWARD,TX,79720,32.269104,-101.417673,Petroleum,YES,231776.14,0,0,232566.24
PHILLIPS 66 LAKE CHARLES REFINERY,WESTLAKE,CALCASIEU PARISH,LA,70669,30.242155,-93.274386,Petroleum,NO,86544,145190,0,231997
DIAMOND SHAMROCK REFINING CO LP,SUNRAY,MOORE,TX,79086,35.951944,-101.873889,Petroleum,NO,111000,37,0,231437
SWEETWATER MINE/MILL,ELLINGTON,REYNOLDS,MO,63638,37.358597,-91.147258,Metal Mining,NO,1.06,1.63,0,231117.82
JOHN W STONE OIL DISTRIBUTOR,HOUSTON,HARRIS,TX,77015,29.75374,-95.14066,Petroleum Bulk Terminals,NO,115000,0,0,230000
OCCIDENTAL CHEMICAL CORP,WICHITA,SEDGWICK,KS,67215,37.581667,-97.425278,Chemicals,NO,8977,0,0,229269
NEVADA GOLD MINES LLC - PHOENIX MINE,BATTLE MOUNTAIN,LANDER,NV,89820,40.50066,-117.10615,Metal Mining,NO,0,0,0,228970
NEVADA GOLD MINES LLC - GOLDSTRIKE MINES INC,CARLIN,ELKO,NV,89822,40.974445,-116.349998,Metal Mining,NO,0,0,0,222866
AMERICAN CHROME & CHEMICALS,CASTLE HAYNE,NEW HANOVER,NC,28429,34.372516,-77.859466,Chemicals,NO,3081,46,0,221528.64
USS-CLAIRTON PLANT,CLAIRTON,ALLEGHENY,PA,15025,40.305088,-79.876911,Petroleum,NO,4649,395,0,220780
CHEVRON PRODUCTS CO RICHMOND REFINERY,RICHMOND,CONTRA COSTA,CA,94801,37.938779,-122.396453,Petroleum,NO,210000,8705,0,219235
P4 PRODUCTION LLC,SODA SPRINGS,CARIBOU,ID,83276,42.687031,-111.5878,Chemicals,YES,3878,0,0,218648.26
NEVADA GOLD MINES LLC - TURQUOISE RIDGE,GOLCONDA,HUMBOLDT,NV,89414,41.216,-117.212,Metal Mining,NO,3,0,0,218283
OCCIDENTAL CHEMICAL CORP,WICHITA,SEDGWICK,KS,67215,37.581667,-97.425278,Chemicals,NO,250,0,0,214621
FLINT HILLS RESOURCES PINE BEND LLC,ROSEMOUNT,DAKOTA,MN,55068,44.764434,-93.039484,Petroleum,NO,0,214230,0,214230
LYONDELL CHEMICAL CO,CHANNELVIEW,HARRIS,TX,77530,29.816654,-95.107603,Chemicals,YES,23659,0,0,214050
FORMOSA PLASTICS CORP TEXAS,POINT COMFORT,CALHOUN,TX,77978,28.69759,-96.542101,Chemicals,NO,200043,5133,0,213826
LSB CHEMICAL LLC,CHEROKEE,COLBERT,AL,35616,34.80302,-87.93974,Chemicals,NO,0,212741,0,213176
MARIGOLD MINING CO,VALMY,HUMBOLDT,NV,89438,40.779795,-117.139904,Metal Mining,NO,0,0,0,213000
EXXON MOBIL CORP - BATON ROUGE PLASTICS PLANT,BATON ROUGE,EAST BATON ROUGE PARISH,LA,70807,30.552014,-91.178517,Chemicals,NO,60956,0,0,212647
TRONOX LLC,HAMILTON,MONROE,MS,39746,33.730556,-88.4525,Chemicals,NO,198573,0,0,208974
THE DOW CHEMICAL CO - BEAUMONT ANILINE,NEDERLAND,JEFFERSON,TX,77627,30.014764,-94.028837,Chemicals,NO,0,0,0,208106
AJINOMOTO HEALTH & NUTRITION N.A. INC.,EDDYVILLE,MONROE,IA,52553,41.143573,-92.647934,Chemicals,NO,194280,201,0,207106
SASOL CHEMICALS (USA) LLC-LAKE CHARLES CHEMICAL COMPLEX,WESTLAKE,CALCASIEU PARISH,LA,70669,30.2588,-93.2937,Chemicals,NO,189083,0,0,205745
U.S. SILVER - IDAHO INC,WALLACE,SHOSHONE,ID,83873,47.48289,-115.961552,Metal Mining,NO,0,0,0,205310
EXXONMOBIL CHEMICAL CO BAYTOWN OLEFINS PLANT (PART),BAYTOWN,HARRIS,TX,77520,29.73934,-95.022404,Chemicals,NO,150000,0,0,205000
MONTANA RESOURCES LLC,BUTTE,SILVER BOW,MT,59701,46.007588,-112.501703,Metal Mining,YES,0,0,0,204961.6
PCS NITROGEN FERTILIZER LP,AUGUSTA,RICHMOND,GA,30901,33.426976,-81.932898,Chemicals,NO,10,204318,0,204338
KOHLER CO,BROWNWOOD,BROWN,TX,76801,31.66526,-99.0004,Plastics and Rubber,YES,197391,0,0,203819
ENTERPRISE PRODUCTS OPERATING LLC,MONT BELVIEU,CHAMBERS,TX,77580,29.857654,-94.910674,Chemicals,NO,70173,0,0,202323
BASIN ELECTRIC ANTELOPE VALLEY STATION,BEULAH,MERCER,ND,58523,47.370445,-101.838042,Chemicals,NO,202000,0,0,202142
ISP CHEMICALS LLC,CALVERT CITY,MARSHALL,KY,42029,37.047737,-88.35866,Chemicals,NO,0,201499,0,201499
WILDCAT GAS PLANT,KERMIT,WINKLER,TX,79745,31.804744,-103.239075,Natural Gas Processing,YES,110,0,0,200310
POGO MINE,DELTA JUNCTION,SOUTHEAST FAIRBANKS CENSU,AK,99737,64.449722,-144.939623,Metal Mining,NO,6.26,9.29,0,200309.65
EXXONMOBIL BATON ROUGE CHEMICAL PLANT (PART),BATON ROUGE,EAST BATON ROUGE PARISH,LA,70805,30.495769,-91.173111,Chemicals,NO,200000,0,0,200280
DARAMIC LLC,OWENSBORO,DAVIESS,KY,42303,37.810556,-87.049722,Plastics and Rubber,NO,63959.17,0,0,200196.15
RED DOG OPERATIONS,KOTZEBUE,NORTHWEST ARCTIC BOROUGH,AK,99752,68.061507,-162.855492,Metal Mining,NO,2.7,0.002,0,199801.702
ZEON CHEMICALS LP MISSISSIPPI PLANT,HATTIESBURG,FORREST,MS,39401,31.340176,-89.314745,Chemicals,NO,199008.99,0,0,199478.99
INV NYLON CHEMICALS AMERICAS VICTORIA SITE,VICTORIA,VICTORIA,TX,77905,28.673056,-96.953611,Chemicals,NO,151708,1683,0,197785
INEOS USA LLC - CHOCOLATE BAYOU PLANT,ALVIN,BRAZORIA,TX,77511,29.413774,-95.263726,Chemicals,NO,154710,0,0,197322
CITGO REFINING & CHEMICALS CO LP EAST PLANT,CORPUS CHRISTI,NUECES,TX,78407,27.80962,-97.425869,Petroleum,NO,0,196643.21,0,196643.21
HEXCEL CORP,SALT LAKE CITY,SALT LAKE,UT,84118,40.653604,-112.054074,Chemicals,NO,180210,0,0,196065
LYONDELL CHEMICAL CO,CHANNELVIEW,HARRIS,TX,77530,29.816654,-95.107603,Chemicals,YES,160652,0,0,195905
CHEMOURS DELISLE PLANT,PASS CHRISTIAN,HARRISON,MS,39571,30.389186,-89.308892,Chemicals,NO,108,60,0,195655
BASF TOTALENERGIES PETROCHEMICALS LLC,PORT ARTHUR,JEFFERSON,TX,77642,29.951649,-93.887272,Chemicals,NO,178333.4,0,0,194062
AJINOMOTO HEALTH & NUTRITION N.A. INC.,EDDYVILLE,MONROE,IA,52553,41.143573,-92.647934,Chemicals,NO,0,193902,0,193902
AMERICAN SYNTHETIC RUBBER CO,LOUISVILLE,JEFFERSON,KY,40216,38.209167,-85.843611,Chemicals,NO,175065.8,0,0,192805.8
EAGLE MINE,MICHIGAMME,MARQUETTE,MI,49861,46.747492,-87.879746,Metal Mining,YES,6.4,0,0,190011.51
MOSAIC PHOSPHATES CO FAUSTINA PLANT,SAINT JAMES,ST. JAMES PARISH,LA,70086,30.085,-90.914722,Chemicals,NO,190000,0,0,190000
LANXESS - CENTRAL,EL DORADO,UNION,AR,71730,33.1831,-92.7069,Chemicals,NO,4474,85,0,189660
ASARCO LLC MISSION COMPLEX,SAHUARITA,PIMA,AZ,85629,31.998092,-111.052412,Metal Mining,NO,0,0.449,0,187970.343
PHILLIPS 66 LAKE CHARLES REFINERY,WESTLAKE,CALCASIEU PARISH,LA,70669,30.242155,-93.274386,Petroleum,NO,182070,0,0,185455
NEVADA GOLD MINES LLC - GOLDSTRIKE MINES INC,CARLIN,ELKO,NV,89822,40.974445,-116.349998,Metal Mining,NO,0,0,0,185430
INV NYLON CHEMICALS AMERICAS VICTORIA SITE,VICTORIA,VICTORIA,TX,77905,28.673056,-96.953611,Chemicals,NO,30898,0,0,185297
JUPITER SULPHUR LLC,PONCA CITY,KAY,OK,74601,36.67715,-97.07832,Chemicals,NO,82872,0,0,183890
HUNT REFINING CO A CORP,TUSCALOOSA,TUSCALOOSA,AL,35401,33.2003,-87.607,Petroleum,NO,0,181653,0,181653
ALPEK POLYESTER USA LLC-COLUMBIA SITE,GASTON,CALHOUN,SC,29053,33.866387,-81.012712,Chemicals,NO,104820,1857,0,181597
MOSAIC FERTILIZER LLC UNCLE SAM PLANT,UNCLE SAM,ST. JAMES PARISH,LA,70792,30.019619,-90.769063,Chemicals,NO,180000,0,0,181200
MISSOURI COBALT,FREDERICKTOWN,MADISON,MO,63645,37.583996,-90.329007,Metal Mining,NO,0,0,0,180529.14
HONEYWELL INTERNATIONAL COLONIAL HEIGHTS PLANT,COLONIAL HEIGHTS,CHESTERFIELD,VA,23834,37.3051,-77.3973,Chemicals,NO,32160,0,0,180408
EAGLE MINE,MICHIGAMME,MARQUETTE,MI,49861,46.747492,-87.879746,Metal Mining,NO,4.3,0,0,180007.73
FORT KNOX MINE,FAIRBANKS,FAIRBANKS NORTH STAR BOROUGH,AK,99712,64.99953,-147.358107,Metal Mining,YES,1,0,0,180001
EES COKE BATTERY LLC,RIVER ROUGE,WAYNE,MI,48218,42.283105,-83.113962,Petroleum,NO,180000,0,0,180000
DEER PARK REFINING LP,DEER PARK,HARRIS,TX,77536,29.722222,-95.126944,Petroleum,NO,0,180000,0,180000
AMERICAN CHROME & CHEMICALS,CASTLE HAYNE,NEW HANOVER,NC,28429,34.372516,-77.859466,Chemicals,NO,277.6,0,0,179138.6
"ALTIVIA PETROCHEMICALS, LLC",HAVERHILL,SCIOTO,OH,45636,38.59167,-82.81944,Chemicals,YES,66567,20,0,179042
WHITE SPRINGS AGRICULTURAL CHEMICALS INC. - NUTRIEN,WHITE SPRINGS,HAMILTON,FL,32096,30.440833,-82.788056,Chemicals,NO,0,0,0,178903
ARLANXEO,ORANGE,ORANGE,TX,77630,30.047146,-93.769768,Chemicals,NO,162070.4,22.75,0,178771.95
POGO MINE,DELTA JUNCTION,SOUTHEAST FAIRBANKS CENSU,AK,99737,64.449722,-144.939623,Metal Mining,NO,1.12,0.49,0,178404.12
CF INDUSTRIES NITROGEN LLC,DONALDSONVILLE,ASCENSION PARISH,LA,70346,30.098563,-90.95599,Chemicals,NO,128359,19858,0,177237
EASTMAN CHEMICAL CO TEXAS OPERATIONS,LONGVIEW,HARRISON,TX,75602,32.438056,-94.69,Chemicals,NO,176568,58,0,176701
W R GRACE & CO-CONN GRACE,SULPHUR,CALCASIEU PARISH,LA,70665,30.156194,-93.339443,Chemicals,NO,176669,0,0,176669
CERTAINTEED CORP.,OXFORD,GRANVILLE,NC,27565,36.293789,-78.615014,Petroleum,NO,176084,0,0,176084
COFFEYVILLE RESOURCES NITROGEN FERTILIZERS LLC,COFFEYVILLE,MONTGOMERY,KS,67337,37.04536,-95.60517,Chemicals,NO,76636,0,0,175643
EXXONMOBIL CHEMICAL CO BAYTOWN OLEFINS PLANT (PART),BAYTOWN,HARRIS,TX,77520,29.73934,-95.022404,Chemicals,NO,170000,5143,0,175573
NEVADA GOLD MINES LLC - PHOENIX MINE,BATTLE MOUNTAIN,LANDER,NV,89820,40.50066,-117.10615,Metal Mining,YES,0,0,0,175333
THOMPSON CREEK MINING CO,CLAYTON,CUSTER,ID,83227,44.310829,-114.545294,Metal Mining,NO,0,29253,0,175224
MAAX US CORP,VALDOSTA,LOWNDES,GA,31601,30.80111,-83.27805,Plastics and Rubber,YES,157698,0,0,175220
EASTMAN CHEMICAL CO TENNESSEE OPERATIONS,KINGSPORT,SULLIVAN,TN,37660,36.527055,-82.53858,Chemicals,NO,257,1240,0,174592
NEVADA GOLD MINES LLC - PHOENIX MINE,BATTLE MOUNTAIN,LANDER,NV,89820,40.50066,-117.10615,Metal Mining,NO,1803,0,0,174483
ADVANCION CORP,STERLINGTON,OUACHITA PARISH,LA,71280,32.6907,-92.0826,Chemicals,NO,0,174204,0,174204
ASARCO LLC MISSION COMPLEX,SAHUARITA,PIMA,AZ,85629,31.998092,-111.052412,Metal Mining,NO,0,0,0,173304.8
EXXONMOBIL BAYTOWN CHEMICAL PLANT (PART),BAYTOWN,HARRIS,TX,77520,29.73934,-95.022404,Chemicals,NO,3200,1,0,173201
LOUISIANA INTEGRATED POLYETHYLENE JV LLC,WESTLAKE,CALCASIEU PARISH,LA,70669,30.24502,-93.27563,Chemicals,NO,171387,572,0,171959
CLARION BATHWARE,MARBLE,CLARION,PA,16334,41.3118,-79.4485,Plastics and Rubber,YES,138252,0,0,171760
BLANCHARD REFINING CO LLC,TEXAS CITY,GALVESTON,TX,77590,29.374444,-94.925,Petroleum,NO,171000,0,0,171000
CORNERSTONE CHEMICAL CO,WESTWEGO,JEFFERSON PARISH,LA,70094,29.958889,-90.270472,Chemicals,YES,0,0,0,170351
ALPEK POLYESTER USA LLC-COLUMBIA SITE,GASTON,CALHOUN,SC,29053,33.866387,-81.012712,Chemicals,NO,164855,0,0,170207
EXXONMOBIL OIL BEAUMONT REFINERY (PART),BEAUMONT,JEFFERSON,TX,77701,30.065833,-94.071388,Petroleum,NO,160000,27,0,169727
SIMPLOT PHOSPHATES LLC,ROCK SPRINGS,SWEETWATER,WY,82901,41.53841,-109.12746,Chemicals,NO,57134,0,0,168207.36
INEOS NITRILES USA LLC,LIMA,ALLEN,OH,45804,40.71416,-84.13223,Chemicals,YES,0,0,0,167342
CABOT CORP CANAL PLANT,CENTERVILLE,ST. MARY PARISH,LA,70522,29.68576,-91.473179,Chemicals,NO,132122,0,0,166914
INEOS USA LLC - CHOCOLATE BAYOU PLANT,ALVIN,BRAZORIA,TX,77511,29.413774,-95.263726,Chemicals,NO,120263,0,0,166546
INDUSTRIAL LAMINATES/NORPLEX INC,POSTVILLE,ALLAMAKEE,IA,52162,43.09011,-91.5549,Plastics and Rubber,NO,166077,0,0,166078
NEVADA GOLD MINES LLC - TURQUOISE RIDGE,GOLCONDA,HUMBOLDT,NV,89414,41.216,-117.212,Metal Mining,NO,4279,0,0,165481
LYONDELLBASELL ACETYLS LLC,LA PORTE,HARRIS,TX,77571,29.712222,-95.066667,Chemicals,NO,16000,140000,0,164900
KENNECOTT UTAH COPPER MINE CONCENTRATORS & POWER PLANT,BINGHAM CANYON,SALT LAKE,UT,84006,40.516666,-112.150002,Metal Mining,NO,11,500,0,164836.42
SABIC INNOVATIVE PLASTICS MT. VERNON LLC,MOUNT VERNON,POSEY,IN,47620,37.9072,-87.9271,Chemicals,YES,69000,0,0,164000
BARRIER REEF POOLS,TIMMONSVILLE,DARLINGTON,SC,29161,34.20584,-80.01925,Plastics and Rubber,YES,163400,0,0,163405
HAVERHILL COKE CO LLC,FRANKLIN FURNACE,SCIOTO,OH,45629,38.5973,-82.8271,Petroleum,NO,162840,0,0,162840
CABOT CORP CANAL PLANT,CENTERVILLE,ST. MARY PARISH,LA,70522,29.68576,-91.473179,Chemicals,NO,137929,0,0,162608
BAYER CROPSCIENCE LP,LULING,ST. CHARLES PARISH,LA,70070,29.92444,-90.352217,Chemicals,NO,2200,0,0,162200
BASF CORP - HANNIBAL SITE,PALMYRA,MARION,MO,63461,39.834118,-91.436791,Chemicals,NO,0,161695,0,161695
GEO SPECIALTY CHEMICALS TRIMET PRODUCTS GROUP,ALLENTOWN,LEHIGH,PA,18104,40.63257,-75.54086,Chemicals,NO,0,161511,0,161511
EQUISTAR CHEMICALS LP - LAKE CHARLES POLYMERS,WESTLAKE,CALCASIEU PARISH,LA,70669,30.193916,-93.321347,Chemicals,NO,158891,0,0,161488
CITGO PETROLEUM CORP,SULPHUR,CALCASIEU PARISH,LA,70665,30.18149,-93.324051,Petroleum,NO,152006,0,0,161251
EES COKE BATTERY LLC,RIVER ROUGE,WAYNE,MI,48218,42.283105,-83.113962,Petroleum,YES,160000,0,0,161100
CF INDUSTRIES EAST POINT LLC,WAGGAMAN,JEFFERSON PARISH,LA,70094,29.965,-90.26248,Chemicals,NO,160881.1,0,0,160881.1
MARATHON MANDAN REFINERY,MANDAN,MORTON,ND,58554,46.8441,-100.8855,Petroleum,NO,160000,0,0,160870
INEOS BATTLEGROUND MANUFACTURING COMPLEX,LA PORTE,HARRIS,TX,77571,29.718368,-95.08583,Chemicals,NO,94949,0,0,160664
CITGO PETROLEUM CORP LEMONT REFINERY,LEMONT,WILL,IL,60439,41.656971,-88.044441,Petroleum,NO,0,160611,0,160611
TAMINCO US LLC,PACE,SANTA ROSA,FL,32571,30.580587,-87.137802,Chemicals,NO,13015,0,0,160453
FLINT HILLS RESOURCES CORPUS CHRISTI LLC - EAST PLANT,CORPUS CHRISTI,NUECES,TX,78407,27.801778,-97.423972,Petroleum,NO,0,160291,0,160291
FREEPORT-MCMORAN MORENCI INC,MORENCI,GREENLEE,AZ,85540,33.065,-109.34222,Metal Mining,YES,0,0,0,160250
EASTMAN CHEMICAL CO TENNESSEE OPERATIONS,KINGSPORT,SULLIVAN,TN,37660,36.527055,-82.53858,Chemicals,YES,65413,214,0,160119
SMOKY VALLEY COMMON OPERATION,ROUND MOUNTAIN,NYE,NV,89045,38.716408,-117.101879,Metal Mining,NO,0,0,0,160001
EXXONMOBIL BAYTOWN CHEMICAL PLANT (PART),BAYTOWN,HARRIS,TX,77520,29.73934,-95.022404,Chemicals,NO,150000,0,0,160000
PCS PHOSPHATE CO INC,AURORA,BEAUFORT,NC,27806,35.37745,-76.778816,Chemicals,NO,9674,0,0,158802
HEXCEL CORP,SALT LAKE CITY,SALT LAKE,UT,84118,40.653604,-112.054074,Chemicals,NO,128399,476,0,158610
ERGON REFINING INC,VICKSBURG,WARREN,MS,39183,32.386368,-90.90834,Petroleum,NO,157693,0,0,157799
FRONT LINE MANUFACTURING,WARSAW,KOSCIUSKO,IN,46582,41.2747,-85.87188,Plastics and Rubber,YES,154048,0,0,157518
ASARCO LLC MISSION COMPLEX,SAHUARITA,PIMA,AZ,85629,31.998092,-111.052412,Metal Mining,YES,0,0,0,157471.336
DOW CHEMICAL CO FREEPORT FACILITY,FREEPORT,BRAZORIA,TX,775413257,28.980147,-95.342272,Chemicals,NO,123814,30936,0,156956
RED HILLS GAS PLANT,JAL,LEA,NM,88252,32.210556,-103.523889,Natural Gas Processing,NO,13000,0,0,156900
PCS NITROGEN OHIO L.P.,LIMA,ALLEN,OH,45804,40.717499,-84.132274,Chemicals,NO,0,155816,0,155816
XERXES CORP,ANAHEIM,ORANGE,CA,92807,33.85922,-117.83853,Plastics and Rubber,YES,155167,0,0,155167
XERXES CORP,SEGUIN,GUADALUPE,TX,78155,29.59198,-97.99965,Plastics and Rubber,YES,154495.98,0,0,154495.98
RED HILLS GAS PLANT,JAL,LEA,NM,88252,32.210556,-103.523889,Natural Gas Processing,YES,120000,0,0,154000
WILLIAMSON ENERGY,MARION,WILLIAMSON,IL,62959,37.83464,-88.83582,Coal Mining,YES,0,0,0,153091.3
MARATHON PETROLEUM CO LP,GARYVILLE,ST. JOHN THE BAPTIST PARISH,LA,70051,30.06132,-90.59353,Petroleum,NO,153000,0,0,153000
THE GOODYEAR TIRE & RUBBER CO,HOUSTON,HARRIS,TX,77017,29.704391,-95.255214,Chemicals,YES,114823.65,906.48,0,152331.87
JOHNSON MATTHEY PROCESS TECHNOLOGIES INC,SAVANNAH,CHATHAM,GA,31408,32.1151,-81.2204,Chemicals,NO,0,31,0,150620
WOOD RIVER REFINERY,ROXANA,MADISON,IL,62084,38.840401,-90.070774,Petroleum,NO,150240,0,0,150240
RUBICON LLC,GEISMAR,ASCENSION PARISH,LA,70734,30.1989,-91.0085,Chemicals,NO,130,0,0,150240
PHILLIPS 66 LOS ANGELES REFINERY WILMINGTON PLANT,WILMINGTON,LOS ANGELES,CA,90744,33.774469,-118.290696,Petroleum,NO,150000,0,0,150000
SARTORIUS STEDIM FILTERS INC,YAUCO,YAUCO MUNICIPIO,PR,698,18.06229,-66.859665,Plastics and Rubber,YES,122676,0,0,149886
SYNGENTA CROP PROTECTION LLC SAINT GABRIEL FACILITY,SAINT GABRIEL,IBERVILLE PARISH,LA,70776,30.2413,-91.1009,Chemicals,NO,98972,22,0,149855
ROBINSON NEVADA MINING CO,RUTH,WHITE PINE,NV,89319,39.28107,-114.992175,Metal Mining,NO,0,0,0,149700
EQUISTAR CHEMICALS LP,CORPUS CHRISTI,NUECES,TX,78410,27.81,-97.593611,Chemicals,NO,100186.04,0,0,148119.74
BEST BATH SYSTEMS,CALDWELL,CANYON,ID,83605,43.665182,-116.707098,Plastics and Rubber,YES,145840,0,0,148060.91
POGO MINE,DELTA JUNCTION,SOUTHEAST FAIRBANKS CENSU,AK,99737,64.449722,-144.939623,Metal Mining,NO,3.09,0.24,0,147980.91
XERXES CORP,TIPTON,CEDAR,IA,52772,41.76478,-91.1352,Plastics and Rubber,YES,147828,0,0,147828
BALD MOUNTAIN MINE,ELKO,WHITE PINE,NV,89803,39.946842,-115.623068,Metal Mining,NO,4.2,0,0,147818.8
AMCOR FLEXIBLES N.A.,TERRE HAUTE,VIGO,IN,47804,39.49824,-87.361324,Plastics and Rubber,NO,147493,0,0,147493
THE DOW CHEMICAL CO,MIDLAND,MIDLAND,MI,48667,43.6003,-84.2234,Chemicals,NO,120000,2400,0,146400
CHEMOURS DELISLE PLANT,PASS CHRISTIAN,HARRISON,MS,39571,30.389186,-89.308892,Chemicals,YES,9,4,0,146334
BLANCHARD REFINING CO LLC,TEXAS CITY,GALVESTON,TX,77590,29.374444,-94.925,Petroleum,NO,126000,0,0,146000
VISCOFAN USA INC,DANVILLE,VERMILION,IL,61834,40.141166,-87.580436,Plastics and Rubber,NO,23099,0,0,145301
HUNTSMAN PETROCHEMICAL LLC PORT NECHES FACILITY,PORT NECHES,JEFFERSON,TX,77651,29.972738,-93.94853,Chemicals,NO,120500,0,0,144977
BLANCHARD REFINING CO LLC,TEXAS CITY,GALVESTON,TX,77590,29.374444,-94.925,Petroleum,NO,24000,460,0,144460
VALMONT COMPOSITE STRUCTURES NEWBERRY,NEWBERRY,NEWBERRY,SC,29108,34.317104,-81.634547,Plastics and Rubber,YES,143875,0,0,143875
J R SIMPLOT CO DON SID ING,POCATELLO,POWER,ID,83204,42.9089,-112.5239,Chemicals,NO,0,0,0,143665
COMPOSITE TECHNOLOGY ASSEMBLY PLANT 3,PLYMOUTH,MARSHALL,IN,46563,41.36488,-86.348879,Plastics and Rubber,YES,107652,0,0,143535
MASTER SPAS INC,FORT WAYNE,ALLEN,IN,46804,41.08609,-85.2327,Plastics and Rubber,YES,143330,0,0,143330
WHITE SPRINGS AGRICULTURAL CHEMICALS INC. - NUTRIEN,WHITE SPRINGS,HAMILTON,FL,32096,30.440833,-82.788056,Chemicals,NO,68592,34701,0,143247
CHEMOURS BELLE PLANT,BELLE,KANAWHA,WV,25015,38.24377,-81.55393,Chemicals,NO,0,142806,0,142806
HUMPHREY NO 7,MAIDSVILLE,MONONGALIA,WV,26541,39.677779,-79.984696,Coal Mining,NO,0,0,0,142572
POGO MINE,DELTA JUNCTION,SOUTHEAST FAIRBANKS CENSU,AK,99737,64.449722,-144.939623,Metal Mining,NO,0.54,0.24,0,142185.841
LANCO MANUFACTURING CORP,SAN LORENZO,SAN LORENZO MUNICIPIO,PR,754,18.193248,-65.94819,Chemicals,NO,142067,0,0,142168.77
WHITE SPRINGS AGRICULTURAL CHEMICALS INC. - NUTRIEN,WHITE SPRINGS,HAMILTON,FL,32096,30.440833,-82.788056,Chemicals,NO,12,0,0,141642
COLONIAL CHEMICAL INC,SOUTH PITTSBURG,MARION,TN,37380,34.99767,-85.64357,Chemicals,NO,715.9,0,0,141628.9
EXXONMOBIL BATON ROUGE REFINERY (PART),BATON ROUGE,EAST BATON ROUGE PARISH,LA,70805,30.484917,-91.17392,Petroleum,YES,1000,1,0,141001
VALERO REFINING TEXAS LP CORPUS CHRISTI EAST PLANT,CORPUS CHRISTI,NUECES,TX,78407,27.810775,-97.436658,Petroleum,NO,0,140865,0,140865
SMC NYE MINE SITE,NYE,STILLWATER,MT,59061,45.386111,-109.873333,Metal Mining,NO,250,0,0,140430
MOSAIC FERTILIZER LLC-BARTOW,BARTOW,POLK,FL,33830,27.906116,-81.916555,Chemicals,NO,100000,138,0,140138
TERRA NITROGEN L.P. VERDIGRIS PLANT,CLAREMORE,ROGERS,OK,74019,36.233516,-95.719098,Chemicals,NO,0,139846,0,140096
FUTUREFUEL CHEMICAL CO,BATESVILLE,INDEPENDENCE,AR,72501,35.722342,-91.524983,Chemicals,NO,140000,0,0,140030
FREEPORT-MCMORAN SIERRITA INC,GREEN VALLEY,PIMA,AZ,85614,31.876444,-111.100472,Metal Mining,YES,0,0,0,140005
MARTINEZ REFINING CO LLC,MARTINEZ,CONTRA COSTA,CA,94553,38.016594,-122.115392,Petroleum,NO,140000,0,0,140000
FREEPORT-MCMORAN MORENCI INC,MORENCI,GREENLEE,AZ,85540,33.065,-109.34222,Metal Mining,YES,0,0,0,140000
PCS PHOSPHATE CO INC,AURORA,BEAUFORT,NC,27806,35.37745,-76.778816,Chemicals,NO,6,0,0,139947
TOTALENERGIES PETROCHEMICALS & REFINING USA INC-PORT ARTHUR,PORT ARTHUR,JEFFERSON,TX,77642,29.957935,-93.897484,Petroleum,NO,139426.27,0,0,139426.27
DUPONT FAYETTEVILLE,FAYETTEVILLE,BLADEN,NC,28306,34.84504,-78.85471,Plastics and Rubber,YES,135240,0,0,139013
CHEVRON PRODUCTS CO PASCAGOULA REFINERY,PASCAGOULA,JACKSON,MS,39581,30.343733,-88.4938,Petroleum,NO,91000,520,0,138520
EMD PERFORMANCE MATERIALS CORP,SAVANNAH,CHATHAM,GA,31407,32.20084,-81.1844,Chemicals,NO,0,138472,0,138472
DELAWARE CITY REFINERY,DELAWARE CITY,NEW CASTLE,DE,19706,39.591,-75.634,Petroleum,NO,137900,183,0,138083
PCS PHOSPHATE CO INC,AURORA,BEAUFORT,NC,27806,35.37745,-76.778816,Chemicals,NO,137268,0,0,137331
INV NYLON CHEMICALS AMERICAS VICTORIA SITE,VICTORIA,VICTORIA,TX,77905,28.673056,-96.953611,Chemicals,NO,552,1809,0,137237
ARKEMA INC,AXIS,MOBILE,AL,36505,30.979167,-88.028833,Chemicals,NO,0,137200,0,137200
HF SINCLAIR PARCO REFINING LLC,SINCLAIR,CARBON,WY,82334,41.77899,-107.104,Petroleum,NO,65000,0,0,136006
MONUMENT CHEMICAL KENTUCKY LLC,BRANDENBURG,MEADE,KY,40108,38.002597,-86.117905,Chemicals,NO,0,136000,0,136000
RUBICON LLC,GEISMAR,ASCENSION PARISH,LA,70734,30.1989,-91.0085,Chemicals,NO,56000,0,0,136000
NEVADA GOLD MINES LLC - PHOENIX MINE,BATTLE MOUNTAIN,LANDER,NV,89820,40.50066,-117.10615,Metal Mining,NO,0,0,0,135461
OCCIDENTAL CHEMICAL CORP,WICHITA,SEDGWICK,KS,67215,37.581667,-97.425278,Chemicals,NO,473,0,0,135200
MISSOURI COBALT,FREDERICKTOWN,MADISON,MO,63645,37.583996,-90.329007,Metal Mining,YES,0,0,0,134265.8
KRATON CORP,BELPRE,WASHINGTON,OH,45714,39.281072,-81.637901,Chemicals,NO,89400,1,0,133801
INV NYLON CHEMICALS AMERICAS VICTORIA SITE,VICTORIA,VICTORIA,TX,77905,28.673056,-96.953611,Chemicals,NO,120,0,0,133323
EXXONMOBIL CHEMICAL CO BAYTOWN OLEFINS PLANT (PART),BAYTOWN,HARRIS,TX,77520,29.73934,-95.022404,Chemicals,NO,0,133300,0,133300
CHEMOURS JOHNSONVILLE PLANT,NEW JOHNSONVILLE,HUMPHREYS,TN,37134,36.043056,-87.981667,Chemicals,NO,44,1290,0,133026
MINCEY MARBLE MANUFACTURING INC.,GAINESVILLE,HALL,GA,30507,34.23512,-83.817203,Plastics and Rubber,YES,132599,0,0,132599
SMOKY VALLEY COMMON OPERATION,ROUND MOUNTAIN,NYE,NV,89045,38.716408,-117.101879,Metal Mining,NO,0,0,0,132400
SHINTECH PLAQUEMINE PLANT,PLAQUEMINE,IBERVILLE PARISH,LA,70764,30.2594,-91.1737,Chemicals,NO,130340.21,0,0,131908.67
CHEMOURS DELISLE PLANT,PASS CHRISTIAN,HARRISON,MS,39571,30.389186,-89.308892,Chemicals,NO,0,0.5,0,131735.5
TICONA POLYMERS INC,BISHOP,NUECES,TX,78343,27.569714,-97.83493,Chemicals,YES,29800,395,0,131716
PCS PHOSPHATE CO INC,AURORA,BEAUFORT,NC,27806,35.37745,-76.778816,Chemicals,YES,40.11,0,0,131572.842
EXXONMOBIL REFINING & SUPPLY BAYTOWN REFINERY (PART),BAYTOWN,HARRIS,TX,775202099,29.739444,-95.006944,Petroleum,NO,130000,120,0,130966
PRAXIS COS LLC,SAVANNAH,HARDIN,TN,38372,35.16307,-88.2284,Plastics and Rubber,YES,130960,0,0,130960
BASF CORP,GEISMAR,ASCENSION PARISH,LA,70734,30.1979,-91.0035,Chemicals,NO,114000,9010,0,130920
ITAFOS CONDA LLC,SODA SPRINGS,CARIBOU,ID,83276,42.739417,-111.541421,Chemicals,NO,2181.5,0,0,130417.2
AMERICAN ENVIRONMENTAL CONTAINER CORP,LAKELAND,POLK,FL,33801,28.01702,-81.87881,Plastics and Rubber,YES,130377,0,0,130377
OCEANAGOLD HAILE GOLD MINE,KERSHAW,LANCASTER,SC,29067,34.597431,-80.532552,Metal Mining,YES,0.7,68,0,130068.8
ROBINSON NEVADA MINING CO,RUTH,WHITE PINE,NV,89319,39.28107,-114.992175,Metal Mining,NO,0,0,0,130002
FORT KNOX MINE,FAIRBANKS,FAIRBANKS NORTH STAR BOROUGH,AK,99712,64.99953,-147.358107,Metal Mining,NO,0,0,0,130000
ARQ SOLUTIONS (RED RIVER) LLC,COUSHATTA,RED RIVER PARISH,LA,71019,32.005405,-93.387829,Chemicals,NO,129737,0,0,129737
STRUCTURAL COMPOSITES OF INDIA NA INC,LIGONIER,NOBLE,IN,46767,41.4739,-85.60404,Plastics and Rubber,YES,96743,0,0,128990
ROBINSON NEVADA MINING CO,RUTH,WHITE PINE,NV,89319,39.28107,-114.992175,Metal Mining,NO,160,0,0,128160
HF SINCLAIR PUGET SOUND REFINING LLC,ANACORTES,SKAGIT,WA,98221,48.472836,-122.560194,Petroleum,NO,0,127993,0,127993
NEVADA GOLD MINES LLC-CORTEZ DISTRICT,CRESCENT VALLEY,LANDER,NV,89821,40.205,-116.6657,Metal Mining,NO,0,0,0,126968
AMERICAN CHROME & CHEMICALS,CASTLE HAYNE,NEW HANOVER,NC,28429,34.372516,-77.859466,Chemicals,YES,1352,0,0,126840
DAY INTERNATIONAL INC,ARDEN,BUNCOMBE,NC,28704,35.46199,-82.52031,Plastics and Rubber,NO,52484,0,0,126181
TERRA INTERNATIONAL (OKLAHOMA) LLC.,WOODWARD,WOODWARD,OK,73801,36.438556,-99.464083,Chemicals,NO,126092,0,0,126097
ST CHARLES OPERATIONS (TAFT/STAR) UNION CARBIDE CORP,HAHNVILLE,ST. CHARLES PARISH,LA,70057,29.9829,-90.4437,Chemicals,NO,97152,0,0,125749
MPM SILICONES LLC,FRIENDLY,TYLER,WV,26146,39.484572,-81.093403,Chemicals,NO,88981,0,0,125677
M. ARGUESO & CO. INC. (D.B.A. PARAMELT),CLEVELAND,CUYAHOGA,OH,44111,41.46765,-81.77723,Chemicals,NO,0.476,0,0,125535.623
USS-CLAIRTON PLANT,CLAIRTON,ALLEGHENY,PA,15025,40.305088,-79.876911,Petroleum,NO,97793,0,0,125119
SABIC INNOVATIVE PLASTICS US LLC,BURKVILLE,LOWNDES,AL,36752,32.31367,-86.51153,Chemicals,NO,54017,50,0,124710
CORNERSTONE CHEMICAL CO,WESTWEGO,JEFFERSON PARISH,LA,70094,29.958889,-90.270472,Chemicals,NO,313,1469,0,124675
SHELL CATALYST & TECHNOLOGIES,PORT ALLEN,WEST BATON ROUGE PARISH,LA,70767,30.4943,-91.21708,Chemicals,NO,0,124179,0,124179
EASTMAN CHEMICAL CO TENNESSEE OPERATIONS,KINGSPORT,SULLIVAN,TN,37660,36.527055,-82.53858,Chemicals,YES,113246,14,0,123899
MILLIKEN CHEMICAL ALLEN PLANT,BLACKSBURG,CHEROKEE,SC,29702,35.118056,-81.565833,Chemicals,NO,31433,28386,0,123452
DUPONT YERKES PLANT,BUFFALO,ERIE,NY,14207,42.96227,-78.91914,Plastics and Rubber,NO,122718,0,0,122718
PHILLLIPS 66 CO BORGER REFINERY,BORGER,HUTCHINSON,TX,79007,35.703056,-101.36305,Petroleum,NO,0,122651.99,0,122651.99
EXXONMOBIL BAYTOWN CHEMICAL PLANT (PART),BAYTOWN,HARRIS,TX,77520,29.73934,-95.022404,Chemicals,NO,110000,0,0,122000
CHEVRON PRODUCTS CO. DIV OF CHEVRON USA INC.,EL SEGUNDO,LOS ANGELES,CA,90245,33.9082,-118.4085,Petroleum,NO,120000,1700,0,121830
THE ANDERSONS INC - SIOUX CITY,SIOUX CITY,WOODBURY,IA,51101,42.48711,-96.39374,Chemicals,NO,120000,0,0,120750
EUNICE GAS PLANT,EUNICE,LEA,NM,88231,32.424944,-103.14725,Natural Gas Processing,YES,544,0,0,120554
BASF CORP,MC INTOSH,WASHINGTON,AL,36553,31.2789,-88.0043,Chemicals,NO,28532,0,0,120506
PHILLIPS 66 FERNDALE REFINERY,FERNDALE,WHATCOM,WA,98248,48.830142,-122.692114,Petroleum,NO,0,120466,0,120466
WILDCAT GAS PLANT,KERMIT,WINKLER,TX,79745,31.804744,-103.239075,Natural Gas Processing,NO,65,0,0,120365
FREEPORT-MCMORAN BAGDAD INC,BAGDAD,YAVAPAI,AZ,86321,34.56849,-113.17552,Metal Mining,NO,250,5,0,120155
ASCEND PERFORMANCE MATERIALS OPERATIONS LLC,CANTONMENT,ESCAMBIA,FL,325338926,30.596678,-87.251977,Chemicals,NO,0,0,0,120030
EQUISTAR CHEMICALS LP,LA PORTE,HARRIS,TX,77571,29.717471,-95.068008,Chemicals,NO,0,120000,0,120000
IOWA FERTILIZER CO,WEVER,LEE,IA,52658,40.69,-91.23,Chemicals,NO,0,120000,0,120000
HF SIINCLAIR TULSA REFINING LLC EAST FACILITY,TULSA,TULSA,OK,74107,36.1184,-96.0011,Petroleum,NO,120000,0,0,120000
ST PAUL PARK REFINING CO LLC,SAINT PAUL PARK,WASHINGTON,MN,55071,44.850583,-93.002139,Petroleum,NO,0,120000,0,120000
TOLEDO REFINING CO LLC,OREGON,LUCAS,OH,43616,41.6295,-83.4965,Petroleum,NO,120000,0,0,120000
EES COKE BATTERY LLC,RIVER ROUGE,WAYNE,MI,48218,42.283105,-83.113962,Petroleum,NO,120000,0,0,120000
VALERO REFINING-TEXAS LP,TEXAS CITY,GALVESTON,TX,77590,29.369167,-94.911111,Petroleum,NO,120000,0,0,120000
ASCEND PERFORMANCE MATERIALS OPERATIONS LLC-DECATUR PLANT,DECATUR,MORGAN,AL,35601,34.633889,-87.024444,Chemicals,NO,5179,6076,0,119255
NEVADA GOLD MINES LLC - GOLDSTRIKE MINES INC,CARLIN,ELKO,NV,89822,40.974445,-116.349998,Metal Mining,YES,21,0,0,118960
NEVADA GOLD MINES LLC - TURQUOISE RIDGE,GOLCONDA,HUMBOLDT,NV,89414,41.216,-117.212,Metal Mining,YES,4,0,0,118714
VENATOR CHEMICALS LLC,HARRISBURG,CABARRUS,NC,28075,35.33417,-80.6177,Chemicals,NO,0,0,0,118576.8
"PATRICK INDUSTRIES INC,DBA BAYMONT INC BELMONT FACILITY",GOLDEN,TISHOMINGO,MS,38847,34.51169,-88.187252,Plastics and Rubber,YES,118178,0,0,118178
CHEVRON PRODUCTS CO PASCAGOULA REFINERY,PASCAGOULA,JACKSON,MS,39581,30.343733,-88.4938,Petroleum,NO,118000,0,0,118000
INEOS USA LLC - CHOCOLATE BAYOU PLANT,ALVIN,BRAZORIA,TX,77511,29.413774,-95.263726,Chemicals,NO,114475,2149,0,117639
LFM GIDDINGS WEST,GIDDINGS,LEE,TX,78942,30.18525,-96.95631,Plastics and Rubber,YES,117411,0,0,117444
INNOVATIVE WATER CARE LLC  DBA SOLENIS,CHARLESTON,BRADLEY,TN,37310,35.30757,-84.782966,Chemicals,NO,117156,0,0,117161
INEOS NITRILES USA LLC           GREEN LAKE PLANT,PORT LAVACA,CALHOUN,TX,77979,28.570964,-96.83341,Chemicals,NO,0,0,0,117000
LYONDELL CHEMICAL CO BAYPORT FACILITY,PASADENA,HARRIS,TX,77507,29.61,-95.05,Chemicals,NO,95184,0,0,116994
THE DOW CHEMICAL CO - LOUISIANA OPERATIONS,PLAQUEMINE,IBERVILLE PARISH,LA,70764,30.320903,-91.239015,Chemicals,YES,0,0,0,116951
JERRITT CANYON MINE,ELKO,ELKO,NV,89801,41.408933,-115.904286,Metal Mining,NO,0,0,0,116700
AQUATIC CO,SOUTH BOSTON,HALIFAX,VA,24592,36.668404,-78.930964,Plastics and Rubber,YES,106077.2,0,0,115808.2
US BATH GROUP LLC - DBA - MPL CO,FAIRLAND,SHELBY,IN,46126,39.58886,-85.86705,Plastics and Rubber,YES,28890,0,0,115561
KURARAY AMERICA INC,LAPORTE,HARRIS,TX,77571,29.702719,-95.03659,Chemicals,YES,16120,0,0,115371
CHALMETTE REFINING LLC,CHALMETTE,ST. BERNARD PARISH,LA,70043,29.936411,-89.972954,Petroleum,NO,0,115278,0,115278
APMA 9156-GIL EXPLORATION SITE,FAIRBANKS,FAIRBANKS NORTH STAR BORO,AK,99712,64.91909,-147.483,Metal Mining,NO,6,0,0,114273.3
ASCEND PERFORMANCE MATERIALS-CHOCOLATE BAYOU PLANT,ALVIN,BRAZORIA,TX,775110000,29.231225,-95.196088,Chemicals,YES,0,0,0,114093
EQUISTAR CHEMICALS LP-MATAGORDA FACILITY,BAY CITY,MATAGORDA,TX,77414,28.7875,-95.943056,Chemicals,NO,88236,3.8,0,114085.8
CELANESE ACETATE LLC - CELCO PLANT,NARROWS,GILES,VA,24124,37.3451,-80.76293,Chemicals,NO,2242,0,0,113726
ELANCO CLINTON LABORATORIES,CLINTON,VERMILLION,IN,47842,39.680574,-87.425738,Chemicals,NO,0,110000,0,113700
EXXONMOBIL BAYTOWN CHEMICAL PLANT (PART),BAYTOWN,HARRIS,TX,77520,29.73934,-95.022404,Chemicals,NO,0,113000,0,113000
SHELL CHEMICAL LP,GEISMAR,ASCENSION PARISH,LA,70734,30.184161,-90.992889,Chemicals,NO,14668,0,0,112988
NEVADA GOLD MINES LLC - CARLIN SOUTH AREA,CARLIN,EUREKA,NV,89822,40.7813,-116.1858,Metal Mining,YES,8,0,0,112894
CORNERSTONE CHEMICAL CO,WESTWEGO,JEFFERSON PARISH,LA,70094,29.958889,-90.270472,Chemicals,NO,335,314,0,112717
EQUISTAR CHEMICALS CLINTON PLANT,CLINTON,CLINTON,IA,52732,41.807,-90.296,Chemicals,NO,78719.6,0,0,112620.1
CHEMOURS CO - FAYETTEVILLE WORKS,FAYETTEVILLE,BLADEN,NC,28306,34.8419,-78.8388,Chemicals,NO,0,112058,0,112058
PROMAN USA (PAMPA) LLC,PAMPA,GRAY,TX,79065,35.483464,-101.046767,Chemicals,NO,0,0,0,112030
WESTLAKE VINYLS INC,CALVERT CITY,MARSHALL,KY,42029,37.051111,-88.334167,Chemicals,NO,28199.71,0,0,111870.72
USS-CLAIRTON PLANT,CLAIRTON,ALLEGHENY,PA,15025,40.305088,-79.876911,Petroleum,NO,0,0,0,111835
BP PRODUCTS NA WHITING BUSINESS UNIT,WHITING,LAKE,IN,46394,41.663055,-87.479643,Petroleum,NO,110000,810,0,110891
JUPITER SULPHUR LLC,BILLINGS,YELLOWSTONE,MT,59101,45.777707,-108.488463,Chemicals,NO,50620,1,0,110836
AMPAC PLASTICS,CINCINNATI,HAMILTON,OH,45246,39.299679,-84.470222,Plastics and Rubber,NO,110583.25,0,0,110583.25
SAND HILLS GAS PLANT,CRANE,CRANE,TX,79731,31.501667,-102.640277,Natural Gas Processing,NO,550,0,0,110550
NEVADA GOLD MINES LLC-CORTEZ DISTRICT,CRESCENT VALLEY,LANDER,NV,89821,40.205,-116.6657,Metal Mining,YES,1,0,0,110181
KOCH FERTILIZER ENID LLC,ENID,GARFIELD,OK,73701,36.3791,-97.7613,Chemicals,NO,13070,97097,0,110167
GATEWAY GAS PLANT,GARDEN CITY,REAGAN,TX,79739,31.644859,-101.63231,Natural Gas Processing,YES,110000,0,0,110100
NYRSTAR CLARKSVILLE INC,CLARKSVILLE,MONTGOMERY,TN,37040,36.518398,-87.40293,Metal Mining,NO,110087,0,0,110092
RUBICON LLC,GEISMAR,ASCENSION PARISH,LA,70734,30.1989,-91.0085,Chemicals,YES,4,0,0,110018
3M CO - NEVADA,NEVADA,VERNON,MO,64772,37.834476,-94.330625,Plastics and Rubber,NO,5000,0,0,110000
BRASKEM AMERICA INC NEAL PLANT,KENOVA,WAYNE,WV,25530,38.355722,-82.594836,Chemicals,NO,39000,0,0,110000
EXXONMOBIL OIL CORP CHEMICAL PLANT (PART),BEAUMONT,JEFFERSON,TX,77701,30.069957,-94.062144,Chemicals,NO,66000,0,0,110000
EXXONMOBIL REFINING & SUPPLY BAYTOWN REFINERY (PART),BAYTOWN,HARRIS,TX,775202099,29.739444,-95.006944,Petroleum,NO,47000,4100,0,109949
J R SIMPLOT CO DON SID ING,POCATELLO,POWER,ID,83204,42.9089,-112.5239,Chemicals,YES,6.2,0,0,109926.8
LYONDELL CHEMICAL CO,CHANNELVIEW,HARRIS,TX,77530,29.816654,-95.107603,Chemicals,NO,15997,0,0,109766
XERXES CORP,WILLIAMSPORT,WASHINGTON,MD,21795,39.6209,-77.80124,Plastics and Rubber,YES,109615,0,0,109615
BLANCHARD REFINING CO LLC,TEXAS CITY,GALVESTON,TX,77590,29.374444,-94.925,Petroleum,YES,36000,83,0,109083
INEOS NITRILES USA LLC           GREEN LAKE PLANT,PORT LAVACA,CALHOUN,TX,77979,28.570964,-96.83341,Chemicals,YES,0,0,0,108960
FIBER GLASS SYSTEMS LP,BELTON,BELL,TX,76513,31.05196,-97.43767,Plastics and Rubber,YES,108240,0,0,108240
NOV FIBER GLASS SYSTEMS - CONTAINMENT SOLUTIONS,MOUNT UNION,HUNTINGDON,PA,17066,40.36458,-77.86462,Plastics and Rubber,YES,98000,0,0,107800
CORNERSTONE CHEMICAL CO,WESTWEGO,JEFFERSON PARISH,LA,70094,29.958889,-90.270472,Chemicals,NO,0,0,0,107455
CONTAINMENT SOLUTIONS INC,BAKERSFIELD,KERN,CA,93308,35.42981,-119.06432,Plastics and Rubber,YES,107202,0,0,107202
MISSOURI COBALT,FREDERICKTOWN,MADISON,MO,63645,37.583996,-90.329007,Metal Mining,YES,0,0,0,106889.41
CLARIANT CORP CRITTENDEN DRIVE FACILITY,LOUISVILLE,JEFFERSON,KY,40209,38.17593,-85.74902,Chemicals,NO,56232,0,0,106647
LYONDELL CHEMICAL CO,CHANNELVIEW,HARRIS,TX,77530,29.816654,-95.107603,Chemicals,YES,78820,0,0,106415
EQUISTAR CHEMICALS,VICTORIA,VICTORIA,TX,77905,28.688064,-96.941755,Chemicals,NO,77155,0,0,106139
NEVADA GOLD MINES LLC - TURQUOISE RIDGE,GOLCONDA,HUMBOLDT,NV,89414,41.216,-117.212,Metal Mining,NO,53.5,0.2,0,105916.5
LION COPOLYMER GEISMAR LLC,GEISMAR,ASCENSION PARISH,LA,70734,30.205556,-91.006944,Chemicals,NO,97123,0,0,105883
EASTMAN CHEMICAL CO TENNESSEE OPERATIONS,KINGSPORT,SULLIVAN,TN,37660,36.527055,-82.53858,Chemicals,NO,43129,39118,0,105841
CYTEC INDUSTRIES INC,WILLOW ISLAND,PLEASANTS,WV,26134,39.355575,-81.299838,Chemicals,NO,0,105720,0,105720
CHEVRON PHILLIPS CHEMICAL CO LP-ORANGE,ORANGE,ORANGE,TX,77630,30.046111,-93.780556,Chemicals,NO,83679,0,0,105712
COFFEYVILLE RESOURCES REFINING & MARKETING,COFFEYVILLE,MONTGOMERY,KS,67337,37.047556,-95.606106,Petroleum,NO,99526,4404,0,105690
HONEYWELL INTERNATIONAL INC,ORANGE,ORANGE,TX,77630,30.048833,-93.764111,Chemicals,NO,23497,0,0,105265
BAYER CROPSCIENCE LP,LULING,ST. CHARLES PARISH,LA,70070,29.92444,-90.352217,Chemicals,NO,0,99000,0,105200
MATERION NATURAL RESOURCES INC MILL,DELTA,MILLARD,UT,84624,39.46657,-112.438488,Metal Mining,NO,1,0,0,105177
KOPPERS INC,CICERO,COOK,IL,60804,41.821484,-87.750206,Chemicals,NO,105176,0,0,105176
TEIJIN AUTOMOTIVE TECHNOLOGIES - VAN WERT,VAN WERT,VAN WERT,OH,45891,40.84645,-84.59485,Chemicals,YES,56397,0,0,104683
LATHAM POOL PRODUCTS INC-CA,WILLIAMS,COLUSA,CA,95987,39.14128,-122.13503,Plastics and Rubber,YES,104621,0,0,104621
SEALED AIR CORP CRYOVAC DIV,SIMPSONVILLE,GREENVILLE,SC,29681,34.74699,-82.26385,Plastics and Rubber,NO,104184,0,0,104189
AMERICAN SYNTHETIC RUBBER CO,LOUISVILLE,JEFFERSON,KY,40216,38.209167,-85.843611,Chemicals,NO,85543,0,0,104075
HA INTERNATIONAL LLC,OREGON,OGLE,IL,61061,41.99773,-89.36021,Chemicals,NO,98850,8,0,104061
NEVADA GOLD MINES LLC - CARLIN SOUTH AREA,CARLIN,EUREKA,NV,89822,40.7813,-116.1858,Metal Mining,NO,0,0,0,103708
CHEVRON PHILLIPS CHEMICAL CO LP SWEENY COMPLEX,SWEENY,BRAZORIA,TX,77480,29.081543,-95.741714,Chemicals,NO,40670,0,0,103485
ALPEK POLYESTER USA LLC-COLUMBIA SITE,GASTON,CALHOUN,SC,29053,33.866387,-81.012712,Chemicals,NO,92696,0,0,103410
LYONDELLBASELL ACETYLS LLC,LA PORTE,HARRIS,TX,77571,29.712222,-95.066667,Chemicals,YES,51000,330,0,103330
PCS PHOSPHATE CO INC,AURORA,BEAUFORT,NC,27806,35.37745,-76.778816,Chemicals,YES,65254,0,0,103132.26
EXXONMOBIL CHEMICAL CO BAYTOWN OLEFINS PLANT (PART),BAYTOWN,HARRIS,TX,77520,29.73934,-95.022404,Chemicals,NO,41000,0,0,103000
LYONDELL CHEMICAL CO,CHANNELVIEW,HARRIS,TX,77530,29.816654,-95.107603,Chemicals,NO,65524,0,0,102664
LPI INC,JOHNSON CITY,WASHINGTON,TN,37601,36.308667,-82.333722,Plastics and Rubber,YES,68596,0,0,102382
SUGAR CAMP ENERGY,MACEDONIA,FRANKLIN,IL,62860,38.034083,-88.760948,Coal Mining,YES,0,0,0,102117.4
3M CO-HUTCHINSON,HUTCHINSON,MCLEOD,MN,55350,44.879677,-94.359598,Plastics and Rubber,NO,100179,0,0,101623
BP PRODUCTS NA WHITING BUSINESS UNIT,WHITING,LAKE,IN,46394,41.663055,-87.479643,Petroleum,NO,97000,0,0,101500
TOPP INDUSTRIES INC,ROCHESTER,FULTON,IN,46975,41.0698,-86.1943,Plastics and Rubber,YES,101481.61,0,0,101481.61
UOP-SHREVEPORT PLANT,SHREVEPORT,CADDO PARISH,LA,71107,32.61514,-93.92517,Chemicals,YES,50,0,0,101110
ITAFOS CONDA LLC,SODA SPRINGS,CARIBOU,ID,83276,42.739417,-111.541421,Chemicals,NO,4.3,0,0,101086.7
COS-MAR CO,CARVILLE,IBERVILLE PARISH,LA,70721,30.225083,-91.069424,Chemicals,YES,82000,2,0,101002
EXXONMOBIL OIL BEAUMONT REFINERY (PART),BEAUMONT,JEFFERSON,TX,77701,30.065833,-94.071388,Petroleum,NO,83000,0,0,101000
GULF COAST GROWTH VENTURES LLC,GREGORY,SAN PATRICIO,TX,78359,27.925021,-97.316393,Chemicals,NO,69625.2,0,0,100955.2
GEOTEK LLC,STEWARTVILLE,OLMSTED,MN,55976,43.86606,-92.48998,Plastics and Rubber,YES,0,0,0,100768
PHARMACIA & UPJOHN CO LLC A SUBSIDIARY OF PFIZER INC,PORTAGE,KALAMAZOO,MI,49002,42.21319,-85.55999,Chemicals,YES,80,0,0,100330
CLIMAX MOLYBDENUM CO-HENDERSON MINE,EMPIRE,CLEAR CREEK,CO,80438,39.7591,-105.8404,Metal Mining,NO,5,250,0,100260
MOSAIC FERTILIZER LLC-NEW WALES PLANT,MULBERRY,POLK,FL,33860,27.834363,-82.049256,Chemicals,NO,100000,0,0,100000
LYONDELL CHEMICAL CO,CHANNELVIEW,HARRIS,TX,77530,29.816654,-95.107603,Chemicals,YES,49857,0,0,99475
VALERO REFINING - NEW ORLEANS LLC,NORCO,ST. CHARLES PARISH,LA,70079,29.985278,-90.392778,Petroleum,NO,0,99110,0,99110
PINTO VALLEY MINE,MIAMI,GILA,AZ,85539,33.417445,-110.98421,Metal Mining,YES,0,0,0,98763
INDORAMA VENTURES,DECATUR,MORGAN,AL,35601,34.6415,-87.0589,Chemicals,NO,55318,0,0,98674
P4 PRODUCTION LLC,SODA SPRINGS,CARIBOU,ID,83276,42.687031,-111.5878,Chemicals,NO,115,0,0,98629.41
CF INDUSTRIES EAST POINT LLC,WAGGAMAN,JEFFERSON PARISH,LA,70094,29.965,-90.26248,Chemicals,NO,57417.65,0,0,98439.19
DIAMOND SHAMROCK REFINING CO LP,SUNRAY,MOORE,TX,79086,35.951944,-101.873889,Petroleum,NO,0,0,0,98250
SAND HILLS GAS PLANT,CRANE,CRANE,TX,79731,31.501667,-102.640277,Natural Gas Processing,YES,1100,0,0,98100
ITAFOS CONDA LLC,SODA SPRINGS,CARIBOU,ID,83276,42.739417,-111.541421,Chemicals,NO,54.28,0,0,98095.626
MOSAIC FERTILIZER LLC-BARTOW,BARTOW,POLK,FL,33830,27.906116,-81.916555,Chemicals,NO,1000,0,0,98000
HF SINCLAIR EL DORADO REFINING LLC,EL DORADO,BUTLER,KS,67042,37.794007,-96.87414,Petroleum,NO,98000,0,0,98000
ITAFOS CONDA LLC,SODA SPRINGS,CARIBOU,ID,83276,42.739417,-111.541421,Chemicals,NO,8.24,0,0,97586.68
OCI BEAUMONT LLC,NEDERLAND,JEFFERSON,TX,77627,30.013944,-94.048333,Chemicals,NO,86880,0,0,97470
SABIC INNOVATIVE PLASTICS MT. VERNON LLC,MOUNT VERNON,POSEY,IN,47620,37.9072,-87.9271,Chemicals,YES,25000,0,0,97000
INV CAMDEN PLANT,LUGOFF,KERSHAW,SC,29078,34.23458,-80.66584,Chemicals,NO,0,97000,0,97000
OLIVER FIBERGLASS PRODUCTS,HOHENWALD,LEWIS,TN,38462,35.56204,-87.53048,Plastics and Rubber,YES,94054,1,0,96877
BASF CORP - BEAUMONT,BEAUMONT,JEFFERSON,TX,77705,29.971389,-94.053333,Chemicals,NO,916,0,0,96799
INEOS USA LLC - CHOCOLATE BAYOU PLANT,ALVIN,BRAZORIA,TX,77511,29.413774,-95.263726,Chemicals,YES,76731,0,0,96646
INDIANA HARBOR COKE CO LP,EAST CHICAGO,LAKE,IN,46312,41.654499,-87.447459,Petroleum,NO,96274.7,0,0,96274.7
BETTER WAY PRODUCTS,BREMEN,MARSHALL,IN,46506,41.453846,-86.134613,Plastics and Rubber,YES,95999,0,0,96129
SHELL CHEMICAL LP,DEER PARK,HARRIS,TX,77536,29.722222,-95.126944,Chemicals,NO,52000,0,0,96000
CHEMOURS JOHNSONVILLE PLANT,NEW JOHNSONVILLE,HUMPHREYS,TN,37134,36.043056,-87.981667,Chemicals,NO,14.8,129,0,95836.4
BASF TOTALENERGIES PETROCHEMICALS LLC,PORT ARTHUR,JEFFERSON,TX,77642,29.951649,-93.887272,Chemicals,NO,74229.8,0,0,95721.4
ENTERPRISE PRODUCTS OPERATING LLC,MONT BELVIEU,CHAMBERS,TX,77580,29.857654,-94.910674,Chemicals,NO,95509,0,0,95570
CHEMOURS WASHINGTON WORKS,WASHINGTON,WOOD,WV,26181,39.271944,-81.661667,Chemicals,NO,47252,48272,0,95544
BLANCHARD REFINING CO LLC,TEXAS CITY,GALVESTON,TX,77590,29.374444,-94.925,Petroleum,NO,18000,430,0,95430
EXXONMOBIL REFINING & SUPPLY BAYTOWN REFINERY (PART),BAYTOWN,HARRIS,TX,775202099,29.739444,-95.006944,Petroleum,NO,95000,0,0,95360
DELAWARE CITY REFINERY,DELAWARE CITY,NEW CASTLE,DE,19706,39.591,-75.634,Petroleum,NO,95356,0,0,95356
SASOL CHEMICALS (USA) LLC-LAKE CHARLES CHEMICAL COMPLEX,WESTLAKE,CALCASIEU PARISH,LA,70669,30.2588,-93.2937,Chemicals,NO,93251,1,0,95248
TOTALENERGIES PETROCHEMICALS & REFINING USA INC,LA PORTE,HARRIS,TX,77571,29.726111,-95.08945,Chemicals,NO,70984,0,0,95155
SHELL CHEMICAL LP,DEER PARK,HARRIS,TX,77536,29.722222,-95.126944,Chemicals,NO,51000,0,0,95000
DUPONT TEIJIN FILMS SPRUANCE,RICHMOND,CHESTERFIELD,VA,23234,37.449257,-77.436379,Chemicals,NO,49317,40,0,94880
ARLANXEO,ORANGE,ORANGE,TX,77630,30.047146,-93.769768,Chemicals,NO,81913.8,22.75,0,94862.15
CORNERSTONE CHEMICAL CO,WESTWEGO,JEFFERSON PARISH,LA,70094,29.958889,-90.270472,Chemicals,NO,90568,0,0,94649
INV NYLON CHEMICALS AMERICAS ORANGE SITE,ORANGE,ORANGE,TX,77630,30.054167,-93.752208,Chemicals,NO,38000,0,0,94600
GEORGIA-PACIFIC CHEMICALS LLC,CONWAY,NORTHAMPTON,NC,27820,36.429167,-77.223611,Chemicals,NO,91000,0,0,94500
ALLNEX USA INC. WALLINGFORD CT SITE,WALLINGFORD,NEW HAVEN,CT,6492,41.435,-72.836389,Chemicals,NO,2537,0,0,94479
LION ELASTOMERS LLC,PORT NECHES,JEFFERSON,TX,77651,29.987664,-93.944972,Chemicals,YES,90150,0,0,94448
ALBEMARLE CORP SOUTH PLANT,MAGNOLIA,COLUMBIA,AR,71753,33.1756,-93.2169,Chemicals,NO,94221,0,0,94401
MATERION NATURAL RESOURCES MINE,DELTA,JUAB,UT,84624,39.49411,-112.57411,Metal Mining,NO,0.49,0,0,94385.49
EXXONMOBIL MONT BELVIEU PLASTICS PLANT,BAYTOWN,CHAMBERS,TX,77521,29.8742,-94.9122,Chemicals,NO,67903,0,0,94134
BASF CORP - BEAUMONT,BEAUMONT,JEFFERSON,TX,77705,29.971389,-94.053333,Chemicals,NO,552,0,0,94000
ALON REFINING KROTZ SPRINGS INC,KROTZ SPRINGS,ST. LANDRY PARISH,LA,70750,30.526504,-91.748383,Petroleum,NO,92499,43,0,93995
PATRICK INDUSTRIES INC DBA BAYMONT INDUSTRIES PLANT NO. 2,BELMONT,TISHOMINGO,MS,38827,34.486944,-88.205278,Plastics and Rubber,YES,93912,0,0,93912
MDA MANUFACTURING INC,DECATUR,MORGAN,AL,35601,34.630486,-87.039444,Chemicals,NO,76105,0,0,93719
WESTLAKE NATRIUM LLC,PROCTOR,MARSHALL,WV,26055,39.747206,-80.851833,Chemicals,NO,0,2148,0,93505
PINNACLE POLYMERS,GARYVILLE,ST. JOHN THE BAPTIST PARISH,LA,70051,30.071313,-90.6087,Chemicals,NO,83333,0,0,93422
PHILLLIPS 66 CO BORGER REFINERY,BORGER,HUTCHINSON,TX,79007,35.703056,-101.36305,Petroleum,NO,29649.84,0,0,93387.52
DUPONT SPECIALTY PRODUCTS USA LLC - SPRUANCE PLANT,NORTH CHESTERFIELD,CHESTERFIELD,VA,23234,37.45093,-77.43415,Chemicals,NO,2363,43,0,93283
DEER PARK REFINING LP,DEER PARK,HARRIS,TX,77536,29.722222,-95.126944,Petroleum,NO,93000,0,0,93005
SI GROUP INC,ORANGEBURG,ORANGEBURG,SC,29115,33.472222,-80.873611,Chemicals,NO,0,92943,0,92977
COVESTRO,PROCTOR,MARSHALL,WV,26055,39.719477,-80.827317,Chemicals,NO,0,92877,0,92877
BRASKEM AMERICA INC-LAPORTE SITE,LA PORTE,HARRIS,TX,77571,29.704027,-95.079932,Chemicals,NO,78356.8,0,0,92272
LYONDELL CHEMICAL CO,CHANNELVIEW,HARRIS,TX,77530,29.816654,-95.107603,Chemicals,NO,79098,1518,0,92053
CORNERSTONE CHEMICAL CO,WESTWEGO,JEFFERSON PARISH,LA,70094,29.958889,-90.270472,Chemicals,YES,1,0,0,91633
NEVADA GOLD MINES LLC - CARLIN SOUTH AREA,CARLIN,EUREKA,NV,89822,40.7813,-116.1858,Metal Mining,NO,883,0,0,91606
THE PRAXIS COS LLC,ENNIS,ELLIS,TX,75119,32.31782,-96.61367,Plastics and Rubber,YES,91300,0,0,91300
BASF CORP,MC INTOSH,WASHINGTON,AL,36553,31.2789,-88.0043,Chemicals,NO,23891,0,0,91053
PHILLIPS 66 LOS ANGELES REFINERY WILMINGTON PLANT,WILMINGTON,LOS ANGELES,CA,90744,33.774469,-118.290696,Petroleum,NO,91000,0,0,91021
EVONIK CORP,CALVERT CITY,MARSHALL,KY,42029,37.03723,-88.351153,Chemicals,NO,0,91000,0,91000
DYNO NOBEL- ST.HELENS PLANT,DEER ISLAND,COLUMBIA,OR,97054,45.9122,-122.8286,Chemicals,NO,16115,74659,0,90774
REDNECK OUTDOOR PRODUCTS LLC,LAMAR,BARTON,MO,64759,37.478188,-94.29923,Plastics and Rubber,YES,26741.67,0,0,90296.87
VIBRANTZ SPECIALTY PRODUCTS LLC,NEW JOHNSONVILLE,HUMPHREYS,TN,37134,35.99622,-87.979395,Chemicals,NO,0,10.22,0,90191.22
FORT KNOX MINE,FAIRBANKS,FAIRBANKS NORTH STAR BOROUGH,AK,99712,64.99953,-147.358107,Metal Mining,NO,0,0,0,90000
LION ELASTOMERS ORANGE LLC,ORANGE,ORANGE,TX,77630,30.04209,-93.83247,Chemicals,NO,45290,0,0,89813
HONEYWELL INTERNATIONAL INC-BATON ROUGE PLANT,BATON ROUGE,EAST BATON ROUGE PARISH,LA,70805,30.474444,-91.183056,Chemicals,NO,56800.18,0,0,89720.085
NEVADA GOLD MINES LLC-CORTEZ DISTRICT,CRESCENT VALLEY,LANDER,NV,89821,40.205,-116.6657,Metal Mining,NO,2,0,0,89679
WESTLAKE VINYLS INC. - PVC PLANT,CALVERT CITY,MARSHALL,KY,42029,37.045833,-88.350556,Chemicals,NO,89609,0,0,89609
THERMA-TRU CORP,BUTLER,DEKALB,IN,46721,41.423536,-84.863845,Plastics and Rubber,YES,1563,0,0,89542
PINTO VALLEY MINE,MIAMI,GILA,AZ,85539,33.417445,-110.98421,Metal Mining,NO,0,0,0,89500
POET BIOREFINING - SHELL ROCK LLC,SHELL ROCK,BUTLER,IA,50670,42.7363,-92.6174,Chemicals,YES,89000,0,0,89110
GATEWAY GAS PLANT,GARDEN CITY,REAGAN,TX,79739,31.644859,-101.63231,Natural Gas Processing,NO,89000,0,0,89080
COVORO MINING SOLUTIONS LLC,MEMPHIS,SHELBY,TN,38127,35.27213,-89.97894,Chemicals,NO,1000,0,0,89023
GLOBAL COMPOSITES INC PLANT 4,ELKHART,ELKHART,IN,46517,41.649556,-86.019805,Plastics and Rubber,YES,79859.28,0,0,88732.53
ECOVYST CATALYST TECHNOLOGIES LLC,KANSAS CITY,WYANDOTTE,KS,66105,39.08742,-94.64768,Chemicals,NO,45200,0,0,88644
BASIN ELECTRIC ANTELOPE VALLEY STATION,BEULAH,MERCER,ND,58523,47.370445,-101.838042,Chemicals,NO,88300,0,0,88404
NEVADA GOLD MINES LLC-CORTEZ DISTRICT,CRESCENT VALLEY,LANDER,NV,89821,40.205,-116.6657,Metal Mining,YES,0,0,0,88281
AURORIUM LLC - ZEELAND,ZEELAND,OTTAWA,MI,49464,42.815845,-86.00946,Chemicals,NO,51661,0,0,88278
CABOT CORP CANAL PLANT,CENTERVILLE,ST. MARY PARISH,LA,70522,29.68576,-91.473179,Chemicals,NO,88257,0,0,88257
FREEPORT-MCMORAN SIERRITA INC,GREEN VALLEY,PIMA,AZ,85614,31.876444,-111.100472,Metal Mining,YES,0,0,0,88000
FREEPORT-MCMORAN SIERRITA INC,GREEN VALLEY,PIMA,AZ,85614,31.876444,-111.100472,Metal Mining,YES,0,0,0,88000
DIAMOND SHAMROCK REFINING CO LP,SUNRAY,MOORE,TX,79086,35.951944,-101.873889,Petroleum,NO,2800,0,0,88000
CHALMETTE REFINING LLC,CHALMETTE,ST. BERNARD PARISH,LA,70043,29.936411,-89.972954,Petroleum,NO,87877,0,0,87877
INV NYLON CHEMICALS AMERICAS VICTORIA SITE,VICTORIA,VICTORIA,TX,77905,28.673056,-96.953611,Chemicals,NO,4,0,0,87823
CABOT CORP CANAL PLANT,CENTERVILLE,ST. MARY PARISH,LA,70522,29.68576,-91.473179,Chemicals,NO,87400,0,0,87400
EUNICE GAS PLANT,EUNICE,LEA,NM,88231,32.424944,-103.14725,Natural Gas Processing,NO,270,0,0,87286
MOSAIC FERTILIZER LLC-BARTOW,BARTOW,POLK,FL,33830,27.906116,-81.916555,Chemicals,NO,87000,0,0,87000
CHEVRON PRODUCTS CO RICHMOND REFINERY,RICHMOND,CONTRA COSTA,CA,94801,37.938779,-122.396453,Petroleum,NO,87000,0,0,87000
EXXONMOBIL BATON ROUGE REFINERY (PART),BATON ROUGE,EAST BATON ROUGE PARISH,LA,70805,30.484917,-91.17392,Petroleum,NO,87000,0,0,87000
PCS PHOSPHATE CO INC,AURORA,BEAUFORT,NC,27806,35.37745,-76.778816,Chemicals,NO,14,0,0,86485.58
CORNERSTONE CHEMICAL CO,WESTWEGO,JEFFERSON PARISH,LA,70094,29.958889,-90.270472,Chemicals,YES,3,0,0,86406
EASTMAN CHEMICAL CO TEXAS OPERATIONS,LONGVIEW,HARRISON,TX,75602,32.438056,-94.69,Chemicals,NO,79555,2,0,86379
DYNO NOBEL INC.--LOMO PLANT,LOUISIANA,PIKE,MO,63353,39.430417,-91.022556,Chemicals,NO,64336,15052,0,86188
MICROPOROUS LLC,PINEY FLATS,SULLIVAN,TN,37686,36.435038,-82.290349,Plastics and Rubber,YES,77000,0,0,85600
DOW VICTORIA SITE,VICTORIA,VICTORIA,TX,77905,28.678574,-96.951973,Chemicals,NO,82881,0,0,85547
INEOS NITRILES USA LLC,LIMA,ALLEN,OH,45804,40.71416,-84.13223,Chemicals,NO,5,0,0,85546
GATEWAY ENERGY & COKE CO,GRANITE CITY,MADISON,IL,62040,38.695766,-90.132874,Petroleum,NO,85244.19,0,0,85244.19
MITSUBISHI CHEMICAL AMERICA INC,MEMPHIS,SHELBY,TN,38127,35.27161,-89.97426,Chemicals,NO,81804,80.31,0,85176.31
MARTINEZ REFINING CO LLC,MARTINEZ,CONTRA COSTA,CA,94553,38.016594,-122.115392,Petroleum,NO,84000,1100,0,85100
CHINO MINES CO MINE CONCENTRATOR-SXEW PLANTS,VANADIUM,GRANT,NM,88023,32.791667,-108.067222,Metal Mining,NO,0,0,0,85000
MEGGITT POLYMERS & COMPOSITES ROCKMART,ROCKMART,POLK,GA,30153,34.00291,-85.03638,Plastics and Rubber,NO,19848,0,0,84912
BATHCRAFT LLC,VALDOSTA,LOWNDES,GA,31601,30.80012,-83.27844,Plastics and Rubber,YES,82364,0,0,84832
BASIN ELECTRIC ANTELOPE VALLEY STATION,BEULAH,MERCER,ND,58523,47.370445,-101.838042,Chemicals,NO,181,1,0,84629
MCCLARIN PLASTICS LLC,WAPATO,YAKIMA,WA,98951,46.461556,-120.426863,Plastics and Rubber,YES,82932,0,0,84624
COVORO MINING SOLUTIONS LLC,MEMPHIS,SHELBY,TN,38127,35.27213,-89.97894,Chemicals,NO,20000,506,0,84527
CHEVRON PRODUCTS CO - SALT LAKE REFINERY,SALT LAKE CITY,SALT LAKE,UT,84116,40.824668,-111.930772,Petroleum,YES,83645,4,0,84377
NEVADA GOLD MINES LLC - PHOENIX MINE,BATTLE MOUNTAIN,LANDER,NV,89820,40.50066,-117.10615,Metal Mining,NO,0.4,0,0,84303.8
NEVADA GOLD MINES LLC - GOLDSTRIKE MINES INC,CARLIN,ELKO,NV,89822,40.974445,-116.349998,Metal Mining,NO,1,0,0,84229
FIBER-TECH INDUSTRIES,SPOKANE VALLEY,SPOKANE,WA,99216,47.686871,-117.1919,Plastics and Rubber,YES,0,0,0,84203
MOSAIC FERTILIZER LLC-RIVERVIEW,RIVERVIEW,HILLSBOROUGH,FL,33578,27.864473,-82.385841,Chemicals,NO,46000,12,0,84012
EQUISTAR CHEMICALS LP,LA PORTE,HARRIS,TX,77571,29.717471,-95.068008,Chemicals,NO,61000,0,0,84000
FREEPORT-MCMORAN MORENCI INC,MORENCI,GREENLEE,AZ,85540,33.065,-109.34222,Metal Mining,NO,0,0,0,84000
J R SIMPLOT CO DON SID ING,POCATELLO,POWER,ID,83204,42.9089,-112.5239,Chemicals,YES,16,0,0,83779.2
